$GNGGA,062402.00,1724.4739,N,07831.0745,E,1,18,00.6,00526.6,M,-071.3,M,,*52
$GNRMC,062402.00,A,1724.4739,N,07831.0745,E,0000.01,000.00,270819,,,A,V*0E
$GNZDA,062402.00,27,08,2019,,*7D
$GNVTG,000.00,T,,M,0000.01,N,0000.01,K,A*23
$GNGLL,1724.4739,N,07831.0745,E,062402.00,A,A*77
$GNGSA,A,3,02,13,24,25,05,12,15,29,21,20,,,01.2,00.6,01.0,1*0C
$GNGSA,A,3,65,66,67,68,69,70,72,75,,,,,01.2,00.6,01.0,2*05
$GNGSA,A,3,,,,,,,,,,,,,01.2,00.6,01.0,4*00
$GPGSV,4,1,14,05,50,028,48,12,50,198,47,25,50,271,46,29,34,336,44,1*69
$GPGSV,4,2,14,15,32,167,46,13,30,120,45,02,27,045,42,21,08,283,37,1*65
$GPGSV,4,3,14,20,07,229,40,24,05,191,37,19,00,123,41,35,00,000,38,1*60
$GPGSV,4,4,14,36,00,000,41,39,00,000,44,1*6B
$GLGSV,3,1,10,65,20,271,42,66,17,031,35,67,31,052,39,68,09,093,38,2*71
$GLGSV,3,2,10,69,29,356,40,70,37,187,46,72,17,218,42,74,,,37,2*4D
$GLGSV,3,3,10,75,70,091,49,76,02,315,24,2*78
$GIGSV,2,1,07,098,,,42,099,,,46,100,,,39,101,,,44,4*72
$GIGSV,2,2,07,102,,,41,103,,,41,097,,,45,4*41
$GNGGA,062403.00,1724.4740,N,07831.0745,E,1,18,00.6,00527.0,M,-071.3,M,,*5A
$GNRMC,062403.00,A,1724.4740,N,07831.0745,E,0000.01,000.00,270819,,,A,V*01
$GNZDA,062403.00,27,08,2019,,*7C
$GNVTG,000.00,T,,M,0000.01,N,0000.02,K,A*20
$GNGLL,1724.4740,N,07831.0745,E,062403.00,A,A*78
$GNGSA,A,3,02,13,24,25,05,12,15,29,21,20,,,01.2,00.6,01.0,1*0C
$GNGSA,A,3,65,66,67,68,69,70,72,75,,,,,01.2,00.6,01.0,2*05
$GNGSA,A,3,,,,,,,,,,,,,01.2,00.6,01.0,4*00
$GPGSV,4,1,14,05,50,028,48,12,50,198,47,25,50,271,46,29,34,336,45,1*68
$GPGSV,4,2,14,15,32,167,46,13,30,120,46,02,27,045,42,21,08,283,37,1*66
$GPGSV,4,3,14,20,07,229,41,24,05,191,37,19,00,123,42,35,00,000,38,1*62
$GPGSV,4,4,14,36,00,000,40,39,00,000,44,1*6A
$GLGSV,3,1,10,65,20,271,42,66,17,031,35,67,31,052,39,68,09,093,38,2*71
$GLGSV,3,2,10,69,29,356,40,70,37,187,46,72,17,218,43,74,,,37,2*4C
$GLGSV,3,3,10,75,70,091,49,76,02,315,24,2*78
$GIGSV,2,1,07,098,,,42,099,,,47,100,,,39,101,,,44,4*73
$GIGSV,2,2,07,102,,,42,103,,,41,097,,,45,4*42
$GNGGA,062404.00,1724.4740,N,07831.0745,E,1,18,00.6,00526.9,M,-071.3,M,,*55
$GNRMC,062404.00,A,1724.4740,N,07831.0745,E,0000.01,000.00,270819,,,A,V*06
$GNZDA,062404.00,27,08,2019,,*7B
$GNVTG,000.00,T,,M,0000.01,N,0000.01,K,A*23
$GNGLL,1724.4740,N,07831.0745,E,062404.00,A,A*7F
$GNGSA,A,3,02,13,24,25,05,12,15,29,21,20,,,01.2,00.6,01.0,1*0C
$GNGSA,A,3,65,66,67,68,69,70,72,75,,,,,01.2,00.6,01.0,2*05
$GNGSA,A,3,,,,,,,,,,,,,01.2,00.6,01.0,4*00
$GPGSV,4,1,14,05,50,028,48,12,50,198,47,25,50,271,46,29,34,336,45,1*68
$GPGSV,4,2,14,15,32,167,46,13,30,120,46,02,27,045,39,21,08,283,37,1*6A
$GPGSV,4,3,14,20,07,229,41,24,05,191,37,19,00,123,41,35,00,000,38,1*61
$GPGSV,4,4,14,36,00,000,41,39,00,000,44,1*6B
$GLGSV,3,1,10,65,20,271,42,66,17,031,35,67,31,052,39,68,09,093,39,2*70
$GLGSV,3,2,10,69,29,356,40,70,37,187,46,72,17,218,43,74,,,37,2*4C
$GLGSV,3,3,10,75,70,091,49,76,02,315,25,2*79
$GIGSV,2,1,07,098,,,42,099,,,46,100,,,39,101,,,44,4*72
$GIGSV,2,2,07,102,,,41,103,,,41,097,,,45,4*41
$GNGGA,062405.00,1724.4741,N,07831.0745,E,1,18,00.6,00527.0,M,-071.3,M,,*5D
$GNRMC,062405.00,A,1724.4741,N,07831.0745,E,0000.01,000.00,270819,,,A,V*06
$GNZDA,062405.00,27,08,2019,,*7A
$GNVTG,000.00,T,,M,0000.01,N,0000.01,K,A*23
$GNGLL,1724.4741,N,07831.0745,E,062405.00,A,A*7F
$GNGSA,A,3,02,13,24,25,05,12,15,29,21,20,,,01.2,00.6,01.0,1*0C
$GNGSA,A,3,65,66,67,68,69,70,72,75,,,,,01.2,00.6,01.0,2*05
$GNGSA,A,3,,,,,,,,,,,,,01.2,00.6,01.0,4*00
$GPGSV,4,1,14,05,50,028,48,12,50,198,46,25,50,271,46,29,34,336,45,1*69
$GPGSV,4,2,14,15,32,167,46,13,30,120,46,02,27,045,41,21,08,283,37,1*65
$GPGSV,4,3,14,20,07,229,42,24,05,191,37,19,00,123,38,35,00,000,37,1*63
$GPGSV,4,4,14,36,00,000,41,39,00,000,44,1*6B
$GLGSV,3,1,10,65,20,271,42,66,17,031,36,67,31,052,39,68,09,093,39,2*73
$GLGSV,3,2,10,69,29,356,39,70,37,187,45,72,17,218,43,74,,,38,2*4E
$GLGSV,3,3,10,75,70,091,49,76,02,315,27,2*7B
$GIGSV,2,1,07,098,,,42,099,,,46,100,,,39,101,,,44,4*72
$GIGSV,2,2,07,102,,,41,103,,,41,097,,,45,4*41
$GNGGA,062406.00,1724.4741,N,07831.0745,E,1,18,00.6,00527.2,M,-071.3,M,,*5C
$GNRMC,062406.00,A,1724.4741,N,07831.0745,E,0000.01,000.00,270819,,,A,V*05
$GNZDA,062406.00,27,08,2019,,*79
$GNVTG,000.00,T,,M,0000.01,N,0000.01,K,A*23
$GNGLL,1724.4741,N,07831.0745,E,062406.00,A,A*7C
$GNGSA,A,3,02,13,24,25,05,12,15,29,21,20,,,01.2,00.6,01.0,1*0C
$GNGSA,A,3,65,66,67,68,69,70,72,75,,,,,01.2,00.6,01.0,2*05
$GNGSA,A,3,,,,,,,,,,,,,01.2,00.6,01.0,4*00
$GPGSV,4,1,14,05,50,028,48,12,50,198,46,25,50,271,46,29,34,336,45,1*69
$GPGSV,4,2,14,15,32,167,46,13,30,120,46,02,27,045,39,21,08,283,37,1*6A
$GPGSV,4,3,14,20,07,229,42,24,05,191,37,19,00,123,36,35,00,000,38,1*62
$GPGSV,4,4,14,36,00,000,40,39,00,000,44,1*6A
$GLGSV,3,1,10,65,20,271,42,66,17,031,36,67,31,052,39,68,09,093,40,2*7D
$GLGSV,3,2,10,69,29,356,39,70,37,187,45,72,17,218,43,74,,,39,2*4F
$GLGSV,3,3,10,75,70,091,49,76,02,315,29,2*75
$GIGSV,2,1,07,098,,,42,099,,,46,100,,,39,101,,,44,4*72
$GIGSV,2,2,07,102,,,41,103,,,41,097,,,45,4*41
$GNGGA,062407.00,1724.4740,N,07831.0745,E,1,18,00.6,00527.0,M,-071.3,M,,*5E
$GNRMC,062407.00,A,1724.4740,N,07831.0745,E,0000.00,000.00,270819,,,A,V*04
$GNZDA,062407.00,27,08,2019,,*78
$GNVTG,000.00,T,,M,0000.00,N,0000.00,K,A*23
$GNGLL,1724.4740,N,07831.0745,E,062407.00,A,A*7C
$GNGSA,A,3,02,13,24,25,05,12,15,29,21,20,,,01.2,00.6,01.0,1*0C
$GNGSA,A,3,65,66,67,68,69,70,72,75,,,,,01.2,00.6,01.0,2*05
$GNGSA,A,3,,,,,,,,,,,,,01.2,00.6,01.0,4*00
$GPGSV,4,1,14,05,50,028,48,12,50,198,46,25,50,271,46,29,34,336,44,1*68
$GPGSV,4,2,14,15,32,167,46,13,30,120,46,02,27,045,39,21,08,283,37,1*6A
$GPGSV,4,3,14,20,07,229,42,24,05,191,37,19,00,123,34,35,00,000,38,1*60
$GPGSV,4,4,14,36,00,000,42,39,00,000,44,1*68
$GLGSV,3,1,10,65,20,271,42,66,17,031,35,67,31,052,39,68,09,093,40,2*7E
$GLGSV,3,2,10,69,29,356,40,70,37,187,45,72,17,218,43,74,,,39,2*41
$GLGSV,3,3,10,75,70,091,49,76,02,315,31,2*7C
$GIGSV,2,1,07,098,,,42,099,,,47,100,,,40,101,,,44,4*7D
$GIGSV,2,2,07,102,,,41,103,,,41,097,,,45,4*41
$GNGGA,062408.00,1724.4740,N,07831.0745,E,1,18,00.6,00526.9,M,-071.3,M,,*59
$GNRMC,062408.00,A,1724.4740,N,07831.0745,E,0000.01,000.00,270819,,,A,V*0A
$GNZDA,062408.00,27,08,2019,,*77
$GNVTG,000.00,T,,M,0000.01,N,0000.01,K,A*23
$GNGLL,1724.4740,N,07831.0745,E,062408.00,A,A*73
$GNGSA,A,3,02,13,24,25,05,12,15,29,21,20,,,01.2,00.6,01.0,1*0C
$GNGSA,A,3,65,66,67,68,69,70,72,75,,,,,01.2,00.6,01.0,2*05
$GNGSA,A,3,,,,,,,,,,,,,01.2,00.6,01.0,4*00
$GPGSV,4,1,14,05,50,028,49,12,50,198,46,25,50,271,46,29,34,336,45,1*68
$GPGSV,4,2,14,15,32,167,46,13,30,120,46,02,27,045,39,21,08,283,38,1*65
$GPGSV,4,3,14,20,07,229,42,24,05,191,36,19,00,123,34,35,00,000,37,1*6E
$GPGSV,4,4,14,36,00,000,42,39,00,000,43,1*6F
$GLGSV,3,1,10,65,20,271,42,66,17,031,35,67,31,052,39,68,09,093,39,2*70
$GLGSV,3,2,10,69,29,356,40,70,37,187,46,72,17,218,43,74,,,39,2*42
$GLGSV,3,3,10,75,70,091,49,76,02,315,32,2*7F
$GIGSV,2,1,07,098,,,42,099,,,46,100,,,40,101,,,44,4*7C
$GIGSV,2,2,07,102,,,41,103,,,42,097,,,45,4*42
$GNGGA,062409.00,1724.4739,N,07831.0745,E,1,22,00.6,00527.0,M,-071.3,M,,*57
$GNRMC,062409.00,A,1724.4739,N,07831.0745,E,0000.01,000.00,270819,,,A,V*05
$GNZDA,062409.00,27,08,2019,,*76
$GNVTG,000.00,T,,M,0000.01,N,0000.02,K,A*20
$GNGLL,1724.4739,N,07831.0745,E,062409.00,A,A*7C
$GNGSA,A,3,02,13,24,25,05,12,15,29,21,20,,,01.1,00.6,00.9,1*07
$GNGSA,A,3,65,66,67,68,69,70,72,75,,,,,01.1,00.6,00.9,2*0E
$GNGSA,A,3,098,099,100,101,,,,,,,,,01.1,00.6,00.9,4*0B
$GPGSV,4,1,14,05,50,028,48,12,50,198,46,25,50,271,46,29,34,336,45,1*69
$GPGSV,4,2,14,15,32,167,46,13,30,120,46,02,27,045,41,21,08,283,37,1*65
$GPGSV,4,3,14,20,07,229,42,24,05,191,37,19,00,123,35,35,00,000,37,1*6E
$GPGSV,4,4,14,36,00,000,40,39,00,000,43,1*6D
$GLGSV,3,1,10,65,20,271,42,66,17,031,36,67,31,052,39,68,09,093,39,2*73
$GLGSV,3,2,10,69,29,356,40,70,37,187,46,72,17,218,43,74,,,39,2*42
$GLGSV,3,3,10,75,70,091,49,76,02,315,32,2*7F
$GIGSV,2,1,07,098,45,224,42,099,67,166,47,100,26,145,40,101,53,063,44,4*7F
$GIGSV,2,2,07,102,,,41,103,,,42,097,,,45,4*42
$GNGGA,062410.00,1724.4739,N,07831.0745,E,1,24,00.5,00528.2,M,-071.3,M,,*57
$GNRMC,062410.00,A,1724.4739,N,07831.0745,E,0000.01,000.00,270819,,,A,V*0D
$GNZDA,062410.00,27,08,2019,,*7E
$GNVTG,000.00,T,,M,0000.01,N,0000.01,K,A*23
$GNGLL,1724.4739,N,07831.0745,E,062410.00,A,A*74
$GNGSA,A,3,02,13,24,25,05,12,15,29,21,20,,,01.1,00.5,00.9,1*04
$GNGSA,A,3,65,66,67,68,69,70,72,75,,,,,01.1,00.5,00.9,2*0D
$GNGSA,A,3,098,099,100,101,102,103,,,,,,,01.1,00.5,00.9,4*09
$GPGSV,4,1,14,05,50,028,49,12,50,198,46,25,50,271,45,29,34,336,45,1*6B
$GPGSV,4,2,14,15,32,167,46,13,30,120,45,02,27,045,39,21,08,283,37,1*69
$GPGSV,4,3,14,20,07,229,42,24,05,191,36,19,00,123,35,35,00,000,37,1*6F
$GPGSV,4,4,14,36,00,000,41,39,00,000,43,1*6C
$GLGSV,3,1,10,65,20,271,42,66,17,031,35,67,31,052,39,68,09,093,40,2*7E
$GLGSV,3,2,10,69,29,356,40,70,37,187,46,72,17,218,44,74,,,38,2*44
$GLGSV,3,3,10,75,70,091,49,76,02,315,31,2*7C
$GIGSV,2,1,07,098,45,224,42,099,67,166,46,100,26,145,39,101,53,063,44,4*70
$GIGSV,2,2,07,102,33,252,41,103,28,105,42,097,,,45,4*49
$GNGGA,062411.00,1724.4740,N,07831.0745,E,1,24,00.5,00528.5,M,-071.3,M,,*5F
$GNRMC,062411.00,A,1724.4740,N,07831.0745,E,0000.02,000.00,270819,,,A,V*01
$GNZDA,062411.00,27,08,2019,,*7F
$GNVTG,000.00,T,,M,0000.02,N,0000.04,K,A*25
$GNGLL,1724.4740,N,07831.0745,E,062411.00,A,A*7B
$GNGSA,A,3,02,13,24,25,05,12,15,29,21,20,,,01.1,00.5,00.9,1*04
$GNGSA,A,3,65,66,67,68,69,70,72,75,,,,,01.1,00.5,00.9,2*0D
$GNGSA,A,3,098,099,100,101,102,103,,,,,,,01.1,00.5,00.9,4*09
$GPGSV,4,1,14,05,50,028,49,12,50,198,46,25,50,271,46,29,34,336,45,1*68
$GPGSV,4,2,14,15,32,167,46,13,30,120,46,02,27,045,39,21,08,283,37,1*6A
$GPGSV,4,3,14,20,07,229,43,24,05,191,36,19,00,123,36,35,00,000,37,1*6D
$GPGSV,4,4,14,36,00,000,41,39,00,000,43,1*6C
$GLGSV,3,1,10,65,20,271,42,66,17,031,35,67,31,052,39,68,09,093,39,2*70
$GLGSV,3,2,10,69,29,356,40,70,37,187,46,72,17,218,43,74,,,37,2*4C
$GLGSV,3,3,10,75,70,091,49,76,02,315,30,2*7D
$GIGSV,2,1,07,098,45,224,42,099,67,166,47,100,26,145,39,101,53,063,45,4*70
$GIGSV,2,2,07,102,33,252,41,103,28,105,42,097,,,45,4*49
$GNGGA,062412.00,1724.4740,N,07831.0744,E,1,24,00.5,00528.1,M,-071.3,M,,*59
$GNRMC,062412.00,A,1724.4740,N,07831.0744,E,0000.02,000.00,270819,,,A,V*03
$GNZDA,062412.00,27,08,2019,,*7C
$GNVTG,000.00,T,,M,0000.02,N,0000.03,K,A*22
$GNGLL,1724.4740,N,07831.0744,E,062412.00,A,A*79
$GNGSA,A,3,02,13,24,25,05,12,15,29,21,20,,,01.1,00.5,00.9,1*04
$GNGSA,A,3,65,66,67,68,69,70,72,75,,,,,01.1,00.5,00.9,2*0D
$GNGSA,A,3,098,099,100,101,102,103,,,,,,,01.1,00.5,00.9,4*09
$GPGSV,4,1,14,05,50,028,48,12,50,198,47,25,50,271,46,29,34,336,45,1*68
$GPGSV,4,2,14,15,32,167,46,13,30,120,45,02,27,045,39,21,08,283,37,1*69
$GPGSV,4,3,14,20,07,229,43,24,05,191,36,19,00,123,37,35,00,000,36,1*6D
$GPGSV,4,4,14,36,00,000,41,39,00,000,43,1*6C
$GLGSV,3,1,10,65,20,271,42,66,17,031,35,67,31,052,39,68,09,093,39,2*70
$GLGSV,3,2,10,69,29,356,41,70,37,187,46,72,17,218,43,74,,,38,2*42
$GLGSV,3,3,10,75,70,091,49,76,02,315,31,2*7C
$GIGSV,2,1,07,098,45,224,42,099,67,166,46,100,26,145,38,101,53,063,44,4*71
$GIGSV,2,2,07,102,33,252,40,103,28,105,42,097,,,45,4*48
$GNGGA,062413.00,1724.4739,N,07831.0743,E,1,24,00.5,00528.4,M,-071.3,M,,*54
$GNRMC,062413.00,A,1724.4739,N,07831.0743,E,0000.02,000.00,270819,,,A,V*0B
$GNZDA,062413.00,27,08,2019,,*7D
$GNVTG,000.00,T,,M,0000.02,N,0000.03,K,A*22
$GNGLL,1724.4739,N,07831.0743,E,062413.00,A,A*71
$GNGSA,A,3,02,13,24,25,05,12,15,29,21,20,,,01.1,00.5,00.9,1*04
$GNGSA,A,3,65,66,67,68,69,70,72,75,,,,,01.1,00.5,00.9,2*0D
$GNGSA,A,3,098,099,100,101,102,103,,,,,,,01.1,00.5,00.9,4*09
$GPGSV,4,1,14,05,50,028,49,12,50,198,47,25,50,271,46,29,34,336,46,1*6A
$GPGSV,4,2,14,15,32,167,46,13,30,120,46,02,27,045,38,21,08,283,37,1*6B
$GPGSV,4,3,14,20,07,229,43,24,05,191,36,19,00,123,36,35,00,000,37,1*6D
$GPGSV,4,4,14,36,00,000,42,39,00,000,43,1*6F
$GLGSV,3,1,10,65,20,271,42,66,17,031,35,67,31,052,39,68,09,093,39,2*70
$GLGSV,3,2,10,69,29,356,41,70,37,187,46,72,17,218,43,74,,,38,2*42
$GLGSV,3,3,10,75,70,091,49,76,02,315,33,2*7E
$GIGSV,2,1,07,098,45,224,41,099,67,166,46,100,26,145,39,101,53,063,44,4*73
$GIGSV,2,2,07,102,33,252,40,103,28,105,42,097,,,45,4*48
$GNGGA,062414.00,1724.4739,N,07831.0743,E,1,24,00.5,00529.9,M,-071.3,M,,*5F
$GNRMC,062414.00,A,1724.4739,N,07831.0743,E,0000.01,000.00,270819,,,A,V*0F
$GNZDA,062414.00,27,08,2019,,*7A
$GNVTG,000.00,T,,M,0000.01,N,0000.03,K,A*21
$GNGLL,1724.4739,N,07831.0743,E,062414.00,A,A*76
$GNGSA,A,3,02,13,24,25,05,12,15,29,21,20,,,01.1,00.5,00.9,1*04
$GNGSA,A,3,65,66,67,68,69,70,72,75,,,,,01.1,00.5,00.9,2*0D
$GNGSA,A,3,098,099,100,101,102,103,,,,,,,01.1,00.5,00.9,4*09
$GPGSV,4,1,14,05,50,028,48,12,50,198,47,25,50,271,45,29,34,336,45,1*6B
$GPGSV,4,2,14,15,32,167,46,13,30,120,45,02,27,045,38,21,08,283,37,1*68
$GPGSV,4,3,14,20,07,229,42,24,05,191,36,19,00,123,35,35,00,000,37,1*6F
$GPGSV,4,4,14,36,00,000,41,39,00,000,43,1*6C
$GLGSV,3,1,10,65,20,271,43,66,17,031,34,67,31,052,39,68,09,093,38,2*71
$GLGSV,3,2,10,69,29,356,40,70,37,187,46,72,17,218,43,74,,,37,2*4C
$GLGSV,3,3,10,75,70,091,49,76,02,315,33,2*7E
$GIGSV,2,1,07,098,45,224,42,099,67,166,46,100,26,145,39,101,53,063,44,4*70
$GIGSV,2,2,07,102,33,252,40,103,28,105,42,097,,,45,4*48
$GNGGA,062415.00,1724.4740,N,07831.0743,E,1,24,00.5,00531.6,M,-071.3,M,,*56
$GNRMC,062415.00,A,1724.4740,N,07831.0743,E,0000.02,000.00,270819,,,A,V*03
$GNZDA,062415.00,27,08,2019,,*7B
$GNVTG,000.00,T,,M,0000.02,N,0000.03,K,A*22
$GNGLL,1724.4740,N,07831.0743,E,062415.00,A,A*79
$GNGSA,A,3,02,13,24,25,05,12,15,29,21,20,,,01.1,00.5,00.9,1*04
$GNGSA,A,3,65,66,67,68,69,70,72,75,,,,,01.1,00.5,00.9,2*0D
$GNGSA,A,3,098,099,100,101,102,103,,,,,,,01.1,00.5,00.9,4*09
$GPGSV,4,1,14,05,50,028,49,12,50,198,47,25,50,271,45,29,34,336,45,1*6A
$GPGSV,4,2,14,15,32,167,46,13,30,120,46,02,27,045,38,21,08,283,37,1*6B
$GPGSV,4,3,14,20,07,229,43,24,05,191,37,19,00,123,33,35,00,000,37,1*69
$GPGSV,4,4,14,36,00,000,40,39,00,000,43,1*6D
$GLGSV,3,1,10,65,20,271,43,66,17,031,34,67,31,052,39,68,09,093,38,2*71
$GLGSV,3,2,10,69,29,356,40,70,37,187,46,72,17,218,43,74,,,37,2*4C
$GLGSV,3,3,10,75,70,091,49,76,02,315,34,2*79
$GIGSV,2,1,07,098,45,224,41,099,67,166,46,100,26,145,39,101,53,063,45,4*72
$GIGSV,2,2,07,102,33,252,42,103,28,105,42,097,,,45,4*4A
$GNGGA,062416.00,1724.4739,N,07831.0743,E,1,24,00.5,00530.7,M,-071.3,M,,*5B
$GNRMC,062416.00,A,1724.4739,N,07831.0743,E,0000.07,000.00,270819,,,A,V*0B
$GNZDA,062416.00,27,08,2019,,*78
$GNVTG,000.00,T,,M,0000.07,N,0000.14,K,A*21
$GNGLL,1724.4739,N,07831.0743,E,062416.00,A,A*74
$GNGSA,A,3,02,13,24,25,05,12,15,29,21,20,,,01.1,00.5,00.9,1*04
$GNGSA,A,3,65,66,67,68,69,70,72,75,,,,,01.1,00.5,00.9,2*0D
$GNGSA,A,3,098,099,100,101,102,103,,,,,,,01.1,00.5,00.9,4*09
$GPGSV,4,1,14,05,50,028,48,12,50,198,47,25,50,271,45,29,34,336,45,1*6B
$GPGSV,4,2,14,15,32,167,46,13,30,120,45,02,27,045,38,21,08,283,37,1*68
$GPGSV,4,3,14,20,07,229,42,24,05,191,36,19,00,123,33,35,00,000,37,1*69
$GPGSV,4,4,14,36,00,000,41,39,00,000,43,1*6C
$GLGSV,3,1,10,65,20,271,43,66,17,031,34,67,31,052,39,68,09,093,39,2*70
$GLGSV,3,2,10,69,29,356,41,70,37,187,46,72,17,218,43,74,,,37,2*4D
$GLGSV,3,3,10,75,70,091,49,76,02,315,35,2*78
$GIGSV,2,1,07,098,45,224,42,099,67,166,46,100,26,145,39,101,53,063,44,4*70
$GIGSV,2,2,07,102,33,252,41,103,28,105,42,097,,,45,4*49
$GNGGA,062417.00,1724.4739,N,07831.0743,E,1,24,00.5,00527.3,M,-071.3,M,,*58
$GNRMC,062417.00,A,1724.4739,N,07831.0743,E,0000.06,000.00,270819,,,A,V*0B
$GNZDA,062417.00,27,08,2019,,*79
$GNVTG,000.00,T,,M,0000.06,N,0000.11,K,A*25
$GNGLL,1724.4739,N,07831.0743,E,062417.00,A,A*75
$GNGSA,A,3,02,13,24,25,05,12,15,29,21,20,,,01.1,00.5,00.9,1*04
$GNGSA,A,3,65,66,67,68,69,70,72,75,,,,,01.1,00.5,00.9,2*0D
$GNGSA,A,3,098,099,100,101,102,103,,,,,,,01.1,00.5,00.9,4*09
$GPGSV,4,1,14,05,50,028,48,12,50,198,46,25,50,271,45,29,34,336,45,1*6A
$GPGSV,4,2,14,15,32,167,47,13,30,120,45,02,27,045,38,21,08,283,37,1*69
$GPGSV,4,3,14,20,07,229,43,24,05,191,36,19,00,123,34,35,00,000,37,1*6F
$GPGSV,4,4,14,36,00,000,40,39,00,000,43,1*6D
$GLGSV,3,1,10,65,20,271,43,66,17,031,34,67,31,052,38,68,09,093,39,2*71
$GLGSV,3,2,10,69,29,356,41,70,37,187,46,72,17,218,43,74,,,37,2*4D
$GLGSV,3,3,10,75,70,091,49,76,02,315,36,2*7B
$GIGSV,2,1,07,098,45,224,42,099,67,166,46,100,26,145,39,101,53,063,44,4*70
$GIGSV,2,2,07,102,33,252,41,103,28,105,42,097,,,45,4*49
$GNGGA,062418.00,1724.4739,N,07831.0742,E,1,24,00.5,00526.3,M,-071.3,M,,*57
$GNRMC,062418.00,A,1724.4739,N,07831.0742,E,0000.04,000.00,270819,,,A,V*07
$GNZDA,062418.00,27,08,2019,,*76
$GNVTG,000.00,T,,M,0000.04,N,0000.07,K,A*20
$GNGLL,1724.4739,N,07831.0742,E,062418.00,A,A*7B
$GNGSA,A,3,02,13,24,25,05,12,15,29,21,20,,,01.1,00.5,00.9,1*04
$GNGSA,A,3,65,66,67,68,69,70,72,75,,,,,01.1,00.5,00.9,2*0D
$GNGSA,A,3,098,099,100,101,102,103,,,,,,,01.1,00.5,00.9,4*09
$GPGSV,4,1,14,05,50,028,49,12,50,198,47,25,50,271,45,29,34,336,45,1*6A
$GPGSV,4,2,14,15,32,167,47,13,30,120,45,02,27,045,38,21,08,283,37,1*69
$GPGSV,4,3,14,20,07,229,42,24,05,191,36,19,00,123,35,35,00,000,38,1*60
$GPGSV,4,4,14,36,00,000,40,39,00,000,43,1*6D
$GLGSV,3,1,10,65,20,271,43,66,17,031,34,67,31,052,38,68,09,093,39,2*71
$GLGSV,3,2,10,69,29,356,41,70,37,187,46,72,17,218,43,74,,,37,2*4D
$GLGSV,3,3,10,75,70,091,49,76,02,315,37,2*7A
$GIGSV,2,1,07,098,45,224,41,099,67,166,46,100,26,145,39,101,53,063,44,4*73
$GIGSV,2,2,07,102,33,252,41,103,28,105,42,097,,,45,4*49
$GNGGA,062419.00,1724.4739,N,07831.0742,E,1,24,00.5,00527.0,M,-071.3,M,,*54
$GNRMC,062419.00,A,1724.4739,N,07831.0742,E,0000.05,000.00,270819,,,A,V*07
$GNZDA,062419.00,27,08,2019,,*77
$GNVTG,000.00,T,,M,0000.05,N,0000.08,K,A*2E
$GNGLL,1724.4739,N,07831.0742,E,062419.00,A,A*7A
$GNGSA,A,3,02,13,24,25,05,12,15,29,21,20,,,01.1,00.5,00.9,1*04
$GNGSA,A,3,65,66,67,68,69,70,72,75,,,,,01.1,00.5,00.9,2*0D
$GNGSA,A,3,098,099,100,101,102,103,,,,,,,01.1,00.5,00.9,4*09
$GPGSV,4,1,14,05,50,028,48,12,50,198,47,25,50,271,46,29,34,336,44,1*69
$GPGSV,4,2,14,15,32,167,47,13,30,120,45,02,27,045,38,21,08,283,38,1*66
$GPGSV,4,3,14,20,07,229,42,24,05,191,35,19,00,123,33,35,00,000,37,1*6A
$GPGSV,4,4,14,36,00,000,41,39,00,000,43,1*6C
$GLGSV,3,1,10,65,20,271,43,66,17,031,35,67,31,052,38,68,09,093,39,2*70
$GLGSV,3,2,10,69,29,356,41,70,37,187,46,72,17,218,43,74,,,37,2*4D
$GLGSV,3,3,10,75,70,091,49,76,02,315,38,2*75
$GIGSV,2,1,07,098,45,224,42,099,67,166,46,100,26,145,40,101,53,063,44,4*7E
$GIGSV,2,2,07,102,33,252,41,103,28,105,42,097,,,45,4*49
$GNGGA,062420.00,1724.4740,N,07831.0742,E,1,24,00.5,00527.3,M,-071.3,M,,*53
$GNRMC,062420.00,A,1724.4740,N,07831.0742,E,0000.02,000.00,270819,,,A,V*04
$GNZDA,062420.00,27,08,2019,,*7D
$GNVTG,000.00,T,,M,0000.02,N,0000.03,K,A*22
$GNGLL,1724.4740,N,07831.0742,E,062420.00,A,A*7E
$GNGSA,A,3,02,13,24,25,05,12,15,29,21,20,,,01.1,00.5,00.9,1*04
$GNGSA,A,3,65,66,67,68,69,70,72,75,,,,,01.1,00.5,00.9,2*0D
$GNGSA,A,3,098,099,100,101,102,103,,,,,,,01.1,00.5,00.9,4*09
$GPGSV,4,1,14,05,50,028,49,12,50,198,46,25,50,271,45,29,34,336,45,1*6B
$GPGSV,4,2,14,15,32,167,47,13,30,120,45,02,27,045,39,21,08,283,37,1*68
$GPGSV,4,3,14,20,07,229,43,24,05,191,36,19,00,123,30,35,00,000,37,1*6B
$GPGSV,4,4,14,36,00,000,40,39,00,000,44,1*6A
$GLGSV,3,1,10,65,20,271,43,66,17,031,35,67,31,052,38,68,09,093,39,2*70
$GLGSV,3,2,10,69,29,356,41,70,37,187,45,72,17,218,43,74,,,36,2*4F
$GLGSV,3,3,10,75,70,091,49,76,02,315,38,2*75
$GIGSV,2,1,07,098,45,224,41,099,67,166,46,100,26,145,40,101,53,063,44,4*7D
$GIGSV,2,2,07,102,33,252,40,103,28,105,42,097,,,45,4*48
$GNGGA,062421.00,1724.4740,N,07831.0742,E,1,24,00.5,00527.9,M,-071.3,M,,*58
$GNRMC,062421.00,A,1724.4740,N,07831.0742,E,0000.02,000.00,270819,,,A,V*05
$GNZDA,062421.00,27,08,2019,,*7C
$GNVTG,000.00,T,,M,0000.02,N,0000.04,K,A*25
$GNGLL,1724.4740,N,07831.0742,E,062421.00,A,A*7F
$GNGSA,A,3,02,13,24,25,05,12,15,29,21,20,,,01.1,00.5,00.9,1*04
$GNGSA,A,3,65,66,67,68,69,70,72,75,,,,,01.1,00.5,00.9,2*0D
$GNGSA,A,3,098,099,100,101,102,103,,,,,,,01.1,00.5,00.9,4*09
$GPGSV,4,1,14,05,50,028,49,12,50,198,46,25,50,271,46,29,34,336,45,1*68
$GPGSV,4,2,14,15,32,167,47,13,30,120,46,02,27,045,38,21,08,283,37,1*6A
$GPGSV,4,3,14,20,07,229,43,24,05,191,36,19,00,123,25,35,00,000,37,1*6F
$GPGSV,4,4,14,36,00,000,41,39,00,000,44,1*6B
$GLGSV,3,1,10,65,20,271,43,66,17,031,35,67,31,052,38,68,09,093,39,2*70
$GLGSV,3,2,10,69,29,356,40,70,37,187,44,72,17,218,42,74,,,36,2*4E
$GLGSV,3,3,10,75,70,091,49,76,02,315,38,2*75
$GIGSV,2,1,07,098,45,224,42,099,67,166,46,100,26,145,39,101,53,063,44,4*70
$GIGSV,2,2,07,102,33,252,41,103,28,105,42,097,,,45,4*49
$GNGGA,062422.00,1724.4740,N,07831.0742,E,1,24,00.5,00527.7,M,-071.3,M,,*55
$GNRMC,062422.00,A,1724.4740,N,07831.0742,E,0000.01,000.00,270819,,,A,V*05
$GNZDA,062422.00,27,08,2019,,*7F
$GNVTG,000.00,T,,M,0000.01,N,0000.02,K,A*20
$GNGLL,1724.4740,N,07831.0742,E,062422.00,A,A*7C
$GNGSA,A,3,02,13,24,25,05,12,15,29,21,20,,,01.1,00.5,00.9,1*04
$GNGSA,A,3,65,66,67,68,69,70,72,75,,,,,01.1,00.5,00.9,2*0D
$GNGSA,A,3,098,099,100,101,102,103,,,,,,,01.1,00.5,00.9,4*09
$GPGSV,4,1,14,05,50,028,48,12,50,198,47,25,50,271,45,29,34,336,44,1*6A
$GPGSV,4,2,14,15,32,167,47,13,30,120,45,02,27,045,38,21,08,283,37,1*69
$GPGSV,4,3,14,20,07,229,43,24,05,191,36,19,00,123,17,35,00,000,37,1*6E
$GPGSV,4,4,14,36,00,000,41,39,00,000,44,1*6B
$GLGSV,3,1,10,65,20,271,43,66,17,031,35,67,31,052,38,68,09,093,40,2*7E
$GLGSV,3,2,10,69,29,356,40,70,37,187,44,72,17,218,43,74,,,36,2*4F
$GLGSV,3,3,10,75,70,091,49,76,02,315,37,2*7A
$GIGSV,2,1,07,098,45,224,42,099,67,166,47,100,26,145,39,101,53,063,44,4*71
$GIGSV,2,2,07,102,33,252,41,103,28,105,42,097,,,45,4*49
$GNGGA,062423.00,1724.4741,N,07831.0743,E,1,24,00.5,00527.8,M,-071.3,M,,*5B
$GNRMC,062423.00,A,1724.4741,N,07831.0743,E,0000.01,000.00,270819,,,A,V*04
$GNZDA,062423.00,27,08,2019,,*7E
$GNVTG,000.00,T,,M,0000.01,N,0000.01,K,A*23
$GNGLL,1724.4741,N,07831.0743,E,062423.00,A,A*7D
$GNGSA,A,3,02,13,24,25,05,12,15,29,21,20,,,01.1,00.5,00.9,1*04
$GNGSA,A,3,65,66,67,68,69,70,72,75,,,,,01.1,00.5,00.9,2*0D
$GNGSA,A,3,098,099,100,101,102,103,,,,,,,01.1,00.5,00.9,4*09
$GPGSV,4,1,14,05,50,028,48,12,50,198,47,25,50,271,46,29,34,336,45,1*68
$GPGSV,4,2,14,15,32,167,46,13,30,120,45,02,27,045,38,21,08,283,38,1*67
$GPGSV,4,3,14,20,07,229,42,24,05,191,36,19,00,123,01,35,00,000,36,1*69
$GPGSV,4,4,14,36,00,000,40,39,00,000,43,1*6D
$GLGSV,3,1,10,65,20,271,43,66,17,031,35,67,31,052,38,68,09,093,40,2*7E
$GLGSV,3,2,10,69,29,356,40,70,37,187,45,72,17,218,43,74,,,36,2*4E
$GLGSV,3,3,10,75,70,091,49,76,02,315,36,2*7B
$GIGSV,2,1,07,098,45,224,42,099,67,166,47,100,26,145,39,101,53,063,45,4*70
$GIGSV,2,2,07,102,33,252,41,103,28,105,42,097,,,45,4*49
$GNGGA,062424.00,1724.4742,N,07831.0743,E,1,24,00.5,00528.8,M,-071.3,M,,*50
$GNRMC,062424.00,A,1724.4742,N,07831.0743,E,0000.05,000.00,270819,,,A,V*04
$GNZDA,062424.00,27,08,2019,,*79
$GNVTG,000.00,T,,M,0000.05,N,0000.09,K,A*2F
$GNGLL,1724.4742,N,07831.0743,E,062424.00,A,A*79
$GNGSA,A,3,02,13,24,25,05,12,15,29,21,20,,,01.1,00.5,00.9,1*04
$GNGSA,A,3,65,66,67,68,69,70,72,75,,,,,01.1,00.5,00.9,2*0D
$GNGSA,A,3,098,099,100,101,102,103,,,,,,,01.1,00.5,00.9,4*09
$GPGSV,4,1,14,05,50,028,48,12,50,198,47,25,50,271,45,29,34,336,45,1*6B
$GPGSV,4,2,14,15,32,167,47,13,30,120,46,02,27,045,41,21,08,283,38,1*6B
$GPGSV,4,3,14,20,07,229,43,24,05,191,36,19,00,123,01,35,00,000,37,1*69
$GPGSV,4,4,14,36,00,000,41,39,00,000,43,1*6C
$GLGSV,3,1,10,65,20,271,43,66,17,031,36,67,31,052,38,68,09,093,40,2*7D
$GLGSV,3,2,10,69,29,356,41,70,37,187,45,72,17,218,43,74,,,37,2*4E
$GLGSV,3,3,10,75,70,091,50,76,02,315,35,2*70
$GIGSV,2,1,07,098,45,224,41,099,67,166,46,100,26,145,39,101,53,063,45,4*72
$GIGSV,2,2,07,102,33,252,41,103,28,105,42,097,,,45,4*49
$GNGGA,062425.00,1724.4742,N,07831.0743,E,1,24,00.5,00527.5,M,-071.3,M,,*53
$GNRMC,062425.00,A,1724.4742,N,07831.0743,E,0000.09,000.00,270819,,,A,V*09
$GNZDA,062425.00,27,08,2019,,*78
$GNVTG,000.00,T,,M,0000.09,N,0000.16,K,A*2D
$GNGLL,1724.4742,N,07831.0743,E,062425.00,A,A*78
$GNGSA,A,3,02,13,24,25,05,12,15,29,21,20,,,01.1,00.5,00.9,1*04
$GNGSA,A,3,65,66,67,68,69,70,72,75,,,,,01.1,00.5,00.9,2*0D
$GNGSA,A,3,098,099,100,101,102,103,,,,,,,01.1,00.5,00.9,4*09
$GPGSV,4,1,14,05,50,028,48,12,50,198,46,25,50,271,46,29,34,336,46,1*6A
$GPGSV,4,2,14,15,32,167,46,13,30,120,46,02,27,045,38,21,08,283,37,1*6B
$GPGSV,4,3,14,20,07,229,43,24,05,191,36,19,00,123,,35,00,000,38,1*67
$GPGSV,4,4,14,36,00,000,40,39,00,000,43,1*6D
$GLGSV,3,1,10,65,20,271,43,66,17,031,35,67,31,052,39,68,09,094,40,2*78
$GLGSV,3,2,10,69,29,356,41,70,37,187,45,72,17,218,44,74,,,38,2*46
$GLGSV,3,3,10,75,70,091,49,76,02,315,36,2*7B
$GIGSV,2,1,07,098,45,224,41,099,67,166,46,100,26,145,39,101,53,063,44,4*73
$GIGSV,2,2,07,102,33,252,40,103,28,105,42,097,,,45,4*48
$GNGGA,062426.00,1724.4742,N,07831.0743,E,1,24,00.5,00526.2,M,-071.3,M,,*56
$GNRMC,062426.00,A,1724.4742,N,07831.0743,E,0000.08,000.00,270819,,,A,V*0B
$GNZDA,062426.00,27,08,2019,,*7B
$GNVTG,000.00,T,,M,0000.08,N,0000.15,K,A*2F
$GNGLL,1724.4742,N,07831.0743,E,062426.00,A,A*7B
$GNGSA,A,3,02,13,24,25,05,12,15,29,21,20,,,01.1,00.5,00.9,1*04
$GNGSA,A,3,65,66,67,68,69,70,72,75,,,,,01.1,00.5,00.9,2*0D
$GNGSA,A,3,098,099,100,101,102,103,,,,,,,01.1,00.5,00.9,4*09
$GPGSV,4,1,14,05,50,028,48,12,50,198,47,25,50,271,46,29,34,336,45,1*68
$GPGSV,4,2,14,15,32,167,47,13,30,120,45,02,27,045,38,21,08,283,37,1*69
$GPGSV,4,3,14,20,07,229,42,24,05,191,35,19,00,123,,35,00,000,37,1*6A
$GPGSV,4,4,14,36,00,000,41,39,00,000,44,1*6B
$GLGSV,3,1,10,65,20,271,43,66,17,031,35,67,31,052,39,68,09,094,40,2*78
$GLGSV,3,2,10,69,29,356,41,70,37,187,46,72,17,218,44,74,,,38,2*45
$GLGSV,3,3,10,75,70,091,49,76,02,315,36,2*7B
$GIGSV,2,1,07,098,45,224,42,099,67,166,47,100,26,145,39,101,53,063,44,4*71
$GIGSV,2,2,07,102,33,252,40,103,28,105,42,097,,,45,4*48
$GNGGA,062427.00,1724.4742,N,07831.0743,E,1,24,00.5,00528.5,M,-071.3,M,,*5E
$GNRMC,062427.00,A,1724.4742,N,07831.0743,E,0000.07,000.00,270819,,,A,V*05
$GNZDA,062427.00,27,08,2019,,*7A
$GNVTG,000.00,T,,M,0000.07,N,0000.12,K,A*27
$GNGLL,1724.4742,N,07831.0743,E,062427.00,A,A*7A
$GNGSA,A,3,02,13,24,25,05,12,15,29,21,20,,,01.1,00.5,00.9,1*04
$GNGSA,A,3,65,66,67,68,69,70,72,75,,,,,01.1,00.5,00.9,2*0D
$GNGSA,A,3,098,099,100,101,102,103,,,,,,,01.1,00.5,00.9,4*09
$GPGSV,4,1,14,05,50,028,48,12,50,198,47,25,50,271,46,29,34,336,45,1*68
$GPGSV,4,2,14,15,32,167,46,13,30,120,46,02,27,045,37,21,08,283,38,1*6B
$GPGSV,4,3,14,20,07,229,42,24,05,191,36,19,00,123,32,35,00,000,37,1*68
$GPGSV,4,4,14,36,00,000,40,39,00,000,43,1*6D
$GLGSV,3,1,10,65,20,271,43,66,17,031,35,67,31,052,38,68,09,094,40,2*79
$GLGSV,3,2,10,69,29,356,41,70,37,187,46,72,17,218,43,74,,,38,2*42
$GLGSV,3,3,10,75,70,090,49,76,02,315,36,2*7A
$GIGSV,2,1,07,098,45,224,41,099,67,166,46,100,26,145,39,101,53,063,44,4*73
$GIGSV,2,2,07,102,33,252,40,103,28,105,42,097,,,45,4*48
$GNGGA,062428.00,1724.4742,N,07831.0743,E,1,24,00.5,00526.7,M,-071.3,M,,*5D
$GNRMC,062428.00,A,1724.4742,N,07831.0743,E,0000.06,000.00,270819,,,A,V*0B
$GNZDA,062428.00,27,08,2019,,*75
$GNVTG,000.00,T,,M,0000.06,N,0000.12,K,A*26
$GNGLL,1724.4742,N,07831.0743,E,062428.00,A,A*75
$GNGSA,A,3,02,13,24,25,05,12,15,29,21,20,,,01.1,00.5,00.9,1*04
$GNGSA,A,3,65,66,67,68,69,70,72,75,,,,,01.1,00.5,00.9,2*0D
$GNGSA,A,3,098,099,100,101,102,103,,,,,,,01.1,00.5,00.9,4*09
$GPGSV,4,1,14,05,50,028,48,12,50,198,47,25,50,271,45,29,34,336,46,1*68
$GPGSV,4,2,14,15,32,167,47,13,30,120,46,02,27,045,38,21,08,283,38,1*65
$GPGSV,4,3,14,20,07,229,42,24,05,191,36,19,00,123,33,35,00,000,37,1*69
$GPGSV,4,4,14,36,00,000,40,39,00,000,43,1*6D
$GLGSV,3,1,10,65,20,271,44,66,17,031,35,67,31,052,39,68,09,094,41,2*7E
$GLGSV,3,2,10,69,29,356,41,70,37,187,46,72,17,218,43,74,,,38,2*42
$GLGSV,3,3,10,75,70,090,49,76,02,315,36,2*7A
$GIGSV,2,1,07,098,44,224,42,099,67,166,47,100,26,145,39,101,53,063,44,4*70
$GIGSV,2,2,07,102,33,252,40,103,28,105,42,097,,,44,4*49
$GNGGA,062429.00,1724.4742,N,07831.0743,E,1,24,00.5,00526.4,M,-071.3,M,,*5F
$GNRMC,062429.00,A,1724.4742,N,07831.0743,E,0000.06,000.00,270819,,,A,V*0A
$GNZDA,062429.00,27,08,2019,,*74
$GNVTG,000.00,T,,M,0000.06,N,0000.11,K,A*25
$GNGLL,1724.4742,N,07831.0743,E,062429.00,A,A*74
$GNGSA,A,3,02,13,24,25,05,12,15,29,21,20,,,01.1,00.5,00.9,1*04
$GNGSA,A,3,65,66,67,68,69,70,72,75,,,,,01.1,00.5,00.9,2*0D
$GNGSA,A,3,098,099,100,101,102,103,,,,,,,01.1,00.5,00.9,4*09
$GPGSV,4,1,14,05,50,028,48,12,50,198,47,25,50,271,46,29,34,336,45,1*68
$GPGSV,4,2,14,15,32,167,47,13,30,120,46,02,27,045,38,21,08,283,38,1*65
$GPGSV,4,3,14,20,07,229,42,24,05,191,37,19,00,123,35,35,00,000,38,1*61
$GPGSV,4,4,14,36,00,000,40,39,00,000,43,1*6D
$GLGSV,3,1,10,65,20,271,43,66,17,031,35,67,31,052,39,68,09,094,41,2*79
$GLGSV,3,2,10,69,29,356,41,70,37,187,45,72,17,218,43,74,,,38,2*41
$GLGSV,3,3,10,75,70,090,49,76,02,315,35,2*79
$GIGSV,2,1,07,098,44,224,41,099,67,166,46,100,26,145,39,101,53,063,44,4*72
$GIGSV,2,2,07,102,33,252,40,103,28,105,42,097,,,44,4*49
$GNGGA,062430.00,1724.4742,N,07831.0743,E,1,24,00.5,00525.5,M,-071.3,M,,*55
$GNRMC,062430.00,A,1724.4742,N,07831.0743,E,0000.06,000.00,270819,,,A,V*02
$GNZDA,062430.00,27,08,2019,,*7C
$GNVTG,000.00,T,,M,0000.06,N,0000.11,K,A*25
$GNGLL,1724.4742,N,07831.0743,E,062430.00,A,A*7C
$GNGSA,A,3,02,13,24,25,05,12,15,29,21,20,,,01.1,00.5,00.9,1*04
$GNGSA,A,3,65,66,67,68,69,70,72,75,,,,,01.1,00.5,00.9,2*0D
$GNGSA,A,3,098,099,100,101,102,103,,,,,,,01.1,00.5,00.9,4*09
$GPGSV,4,1,14,05,50,028,48,12,50,198,47,25,50,271,46,29,34,336,45,1*68
$GPGSV,4,2,14,15,32,167,46,13,30,120,45,02,27,045,38,21,08,283,37,1*68
$GPGSV,4,3,14,20,07,229,42,24,05,191,37,19,00,123,37,35,00,000,36,1*6D
$GPGSV,4,4,14,36,00,000,40,39,00,000,43,1*6D
$GLGSV,3,1,10,65,20,271,43,66,17,031,35,67,31,052,39,68,09,094,41,2*79
$GLGSV,3,2,10,69,29,356,41,70,37,187,45,72,17,218,43,74,,,39,2*40
$GLGSV,3,3,10,75,70,090,49,76,02,315,34,2*78
$GIGSV,2,1,07,098,44,224,42,099,67,166,47,100,26,145,39,101,53,063,45,4*71
$GIGSV,2,2,07,102,33,252,40,103,28,105,42,097,,,45,4*48
$GNGGA,062431.00,1724.4741,N,07831.0743,E,1,24,00.5,00524.0,M,-071.3,M,,*53
$GNRMC,062431.00,A,1724.4741,N,07831.0743,E,0000.01,000.00,270819,,,A,V*07
$GNZDA,062431.00,27,08,2019,,*7D
$GNVTG,000.00,T,,M,0000.01,N,0000.03,K,A*21
$GNGLL,1724.4741,N,07831.0743,E,062431.00,A,A*7E
$GNGSA,A,3,02,13,24,25,05,12,15,29,21,20,,,01.1,00.5,00.9,1*04
$GNGSA,A,3,65,66,67,68,69,70,72,75,,,,,01.1,00.5,00.9,2*0D
$GNGSA,A,3,098,099,100,101,102,103,,,,,,,01.1,00.5,00.9,4*09
$GPGSV,4,1,14,05,50,028,49,12,50,198,47,25,50,271,46,29,34,336,45,1*69
$GPGSV,4,2,14,15,32,167,47,13,30,120,46,02,27,045,38,21,08,283,38,1*65
$GPGSV,4,3,14,20,07,229,43,24,05,191,37,19,00,123,37,35,00,000,36,1*6C
$GPGSV,4,4,14,36,00,000,41,39,00,000,44,1*6B
$GLGSV,3,1,10,65,20,271,43,66,17,031,35,67,31,052,38,68,09,094,42,2*7B
$GLGSV,3,2,10,69,29,356,41,70,37,187,45,72,17,218,42,74,,,39,2*41
$GLGSV,3,3,10,75,70,090,49,76,02,315,34,2*78
$GIGSV,2,1,07,098,44,224,42,099,67,166,47,100,26,145,40,101,53,063,45,4*7F
$GIGSV,2,2,07,102,33,252,40,103,28,105,42,097,,,45,4*48
$GNGGA,062432.00,1724.4740,N,07831.0743,E,1,24,00.5,00521.8,M,-071.3,M,,*5C
$GNRMC,062432.00,A,1724.4740,N,07831.0743,E,0000.01,000.00,270819,,,A,V*05
$GNZDA,062432.00,27,08,2019,,*7E
$GNVTG,000.00,T,,M,0000.01,N,0000.03,K,A*21
$GNGLL,1724.4740,N,07831.0743,E,062432.00,A,A*7C
$GNGSA,A,3,02,13,24,25,05,12,15,29,21,20,,,01.1,00.5,00.9,1*04
$GNGSA,A,3,65,66,67,68,69,70,72,75,,,,,01.1,00.5,00.9,2*0D
$GNGSA,A,3,098,099,100,101,102,103,,,,,,,01.1,00.5,00.9,4*09
$GPGSV,4,1,14,05,50,028,48,12,50,198,47,25,50,271,46,29,34,336,44,1*69
$GPGSV,4,2,14,15,32,167,47,13,30,120,46,02,27,045,38,21,08,283,38,1*65
$GPGSV,4,3,14,20,07,229,42,24,05,191,37,19,00,123,37,35,00,000,37,1*6C
$GPGSV,4,4,14,36,00,000,40,39,00,000,43,1*6D
$GLGSV,3,1,10,65,20,271,43,66,17,031,36,67,31,052,38,68,09,094,42,2*78
$GLGSV,3,2,10,69,29,356,41,70,37,187,46,72,17,218,42,74,,,38,2*43
$GLGSV,3,3,10,75,70,090,49,76,02,315,34,2*78
$GIGSV,2,1,07,098,44,224,42,099,67,166,47,100,26,145,40,101,53,063,44,4*7E
$GIGSV,2,2,07,102,33,252,40,103,28,105,42,097,,,45,4*48
$GNGGA,062433.00,1724.4740,N,07831.0743,E,1,24,00.5,00521.7,M,-071.3,M,,*52
$GNRMC,062433.00,A,1724.4740,N,07831.0743,E,0000.02,000.00,270819,,,A,V*07
$GNZDA,062433.00,27,08,2019,,*7F
$GNVTG,000.00,T,,M,0000.02,N,0000.04,K,A*25
$GNGLL,1724.4740,N,07831.0743,E,062433.00,A,A*7D
$GNGSA,A,3,02,13,24,25,05,12,15,29,21,20,,,01.1,00.5,00.9,1*04
$GNGSA,A,3,65,66,67,68,69,70,72,75,,,,,01.1,00.5,00.9,2*0D
$GNGSA,A,3,098,099,100,101,102,103,,,,,,,01.1,00.5,00.9,4*09
$GPGSV,4,1,14,05,50,028,48,12,50,198,48,25,50,271,46,29,34,336,44,1*66
$GPGSV,4,2,14,15,32,167,47,13,30,120,45,02,27,045,38,21,08,283,39,1*67
$GPGSV,4,3,14,20,07,229,42,24,05,191,37,19,00,123,38,35,00,000,36,1*62
$GPGSV,4,4,14,36,00,000,41,39,00,000,44,1*6B
$GLGSV,3,1,10,65,20,271,43,66,17,031,36,67,31,052,38,68,09,094,41,2*7B
$GLGSV,3,2,10,69,29,356,41,70,37,187,46,72,17,218,42,74,,,38,2*43
$GLGSV,3,3,10,75,70,090,49,76,02,315,35,2*79
$GIGSV,2,1,07,098,44,224,42,099,67,166,47,100,26,145,40,101,53,063,45,4*7F
$GIGSV,2,2,07,102,33,252,40,103,28,105,42,097,,,45,4*48
$GNGGA,062434.00,1724.4740,N,07831.0743,E,1,24,00.5,00522.3,M,-071.3,M,,*52
$GNRMC,062434.00,A,1724.4740,N,07831.0743,E,0000.01,000.00,270819,,,A,V*03
$GNZDA,062434.00,27,08,2019,,*78
$GNVTG,000.00,T,,M,0000.01,N,0000.02,K,A*20
$GNGLL,1724.4740,N,07831.0743,E,062434.00,A,A*7A
$GNGSA,A,3,02,13,24,25,05,12,15,29,21,20,,,01.1,00.5,00.9,1*04
$GNGSA,A,3,65,66,67,68,69,70,72,75,,,,,01.1,00.5,00.9,2*0D
$GNGSA,A,3,098,099,100,101,102,103,,,,,,,01.1,00.5,00.9,4*09
$GPGSV,4,1,14,05,50,028,48,12,50,198,47,25,50,271,45,29,34,336,45,1*6B
$GPGSV,4,2,14,15,32,167,47,13,30,120,46,02,27,045,38,21,08,283,38,1*65
$GPGSV,4,3,14,20,07,229,42,24,05,191,36,19,00,123,38,35,00,000,36,1*63
$GPGSV,4,4,14,36,00,000,41,39,00,000,43,1*6C
$GLGSV,3,1,10,65,20,271,42,66,17,031,36,67,31,052,38,68,09,094,41,2*7A
$GLGSV,3,2,10,69,29,356,41,70,37,187,45,72,17,218,42,74,,,38,2*40
$GLGSV,3,3,10,75,70,090,49,76,02,315,34,2*78
$GIGSV,2,1,07,098,44,224,42,099,67,166,47,100,26,145,40,101,53,063,44,4*7E
$GIGSV,2,2,07,102,33,252,40,103,28,105,41,097,,,45,4*4B
$GNGGA,062435.00,1724.4741,N,07831.0743,E,1,24,00.5,00522.3,M,-071.3,M,,*52
$GNRMC,062435.00,A,1724.4741,N,07831.0743,E,0000.02,000.00,270819,,,A,V*00
$GNZDA,062435.00,27,08,2019,,*79
$GNVTG,000.00,T,,M,0000.02,N,0000.03,K,A*22
$GNGLL,1724.4741,N,07831.0743,E,062435.00,A,A*7A
$GNGSA,A,3,02,13,24,25,05,12,15,29,21,20,,,01.1,00.5,00.9,1*04
$GNGSA,A,3,65,66,67,68,69,70,72,75,,,,,01.1,00.5,00.9,2*0D
$GNGSA,A,3,098,099,100,101,102,103,,,,,,,01.1,00.5,00.9,4*09
$GPGSV,4,1,14,05,50,028,48,12,50,198,47,25,50,271,46,29,34,336,45,1*68
$GPGSV,4,2,14,15,32,167,47,13,30,120,45,02,27,045,38,21,08,283,38,1*66
$GPGSV,4,3,14,20,07,229,42,24,05,191,36,19,00,123,38,35,00,000,36,1*63
$GPGSV,4,4,14,36,00,000,40,39,00,000,44,1*6A
$GLGSV,3,1,10,65,20,271,43,66,17,031,35,67,31,052,38,68,09,094,41,2*78
$GLGSV,3,2,10,69,29,356,41,70,37,187,44,72,17,218,42,74,,,39,2*40
$GLGSV,3,3,10,75,70,090,50,76,02,315,34,2*70
$GIGSV,2,1,07,098,44,224,42,099,67,166,46,100,26,145,40,101,53,063,44,4*7F
$GIGSV,2,2,07,102,33,252,40,103,28,105,42,097,,,44,4*49
$GNGGA,062436.00,1724.4741,N,07831.0743,E,1,24,00.5,00522.1,M,-071.3,M,,*53
$GNRMC,062436.00,A,1724.4741,N,07831.0743,E,0000.02,000.00,270819,,,A,V*03
$GNZDA,062436.00,27,08,2019,,*7A
$GNVTG,000.00,T,,M,0000.02,N,0000.04,K,A*25
$GNGLL,1724.4741,N,07831.0743,E,062436.00,A,A*79
$GNGSA,A,3,02,13,24,25,05,12,15,29,21,20,,,01.1,00.5,00.9,1*04
$GNGSA,A,3,65,66,67,68,69,70,72,75,,,,,01.1,00.5,00.9,2*0D
$GNGSA,A,3,098,099,100,101,102,103,,,,,,,01.1,00.5,00.9,4*09
$GPGSV,4,1,14,05,50,028,48,12,50,198,47,25,50,271,45,29,34,336,45,1*6B
$GPGSV,4,2,14,15,32,167,47,13,30,120,45,02,27,045,39,21,08,283,38,1*67
$GPGSV,4,3,14,20,07,229,42,24,05,191,36,19,00,123,38,35,00,000,35,1*60
$GPGSV,4,4,14,36,00,000,40,39,00,000,44,1*6A
$GLGSV,3,1,10,65,20,271,42,66,17,031,35,67,31,052,38,68,09,094,40,2*78
$GLGSV,3,2,10,69,30,356,41,70,37,187,44,72,17,218,43,74,,,39,2*49
$GLGSV,3,3,10,75,70,090,49,76,02,315,35,2*79
$GIGSV,2,1,07,098,44,224,42,099,67,166,47,100,26,145,40,101,53,063,44,4*7E
$GIGSV,2,2,07,102,33,252,40,103,28,105,42,097,,,45,4*48
$GNGGA,062437.00,1724.4741,N,07831.0743,E,1,24,00.5,00521.9,M,-071.3,M,,*59
$GNRMC,062437.00,A,1724.4741,N,07831.0743,E,0000.02,000.00,270819,,,A,V*02
$GNZDA,062437.00,27,08,2019,,*7B
$GNVTG,000.00,T,,M,0000.02,N,0000.04,K,A*25
$GNGLL,1724.4741,N,07831.0743,E,062437.00,A,A*78
$GNGSA,A,3,02,13,24,25,05,12,15,29,21,20,,,01.1,00.5,00.9,1*04
$GNGSA,A,3,65,66,67,68,69,70,72,75,,,,,01.1,00.5,00.9,2*0D
$GNGSA,A,3,098,099,100,101,102,103,,,,,,,01.1,00.5,00.9,4*09
$GPGSV,4,1,14,05,50,028,48,12,50,198,47,25,50,271,46,29,34,336,44,1*69
$GPGSV,4,2,14,15,32,167,47,13,30,120,45,02,27,045,38,21,08,283,38,1*66
$GPGSV,4,3,14,20,07,229,42,24,05,191,36,19,00,123,39,35,00,000,36,1*62
$GPGSV,4,4,14,36,00,000,40,39,00,000,44,1*6A
$GLGSV,3,1,10,65,20,271,42,66,17,031,35,67,31,052,38,68,09,094,40,2*78
$GLGSV,3,2,10,69,30,356,41,70,37,187,44,72,17,218,43,74,,,39,2*49
$GLGSV,3,3,10,75,70,090,49,76,02,315,36,2*7A
$GIGSV,2,1,07,098,44,224,42,099,67,166,47,100,26,145,40,101,53,063,44,4*7E
$GIGSV,2,2,07,102,33,252,40,103,28,105,42,097,,,45,4*48
$GNGGA,062438.00,1724.4740,N,07831.0742,E,1,24,00.5,00521.8,M,-071.3,M,,*57
$GNRMC,062438.00,A,1724.4740,N,07831.0742,E,0000.03,000.00,270819,,,A,V*0C
$GNZDA,062438.00,27,08,2019,,*74
$GNVTG,000.00,T,,M,0000.03,N,0000.06,K,A*26
$GNGLL,1724.4740,N,07831.0742,E,062438.00,A,A*77
$GNGSA,A,3,02,13,24,25,05,12,15,29,21,20,,,01.1,00.5,00.9,1*04
$GNGSA,A,3,65,66,67,68,69,70,72,75,,,,,01.1,00.5,00.9,2*0D
$GNGSA,A,3,098,099,100,101,102,103,,,,,,,01.1,00.5,00.9,4*09
$GPGSV,4,1,14,05,50,028,48,12,50,198,46,25,50,271,47,29,34,336,45,1*68
$GPGSV,4,2,14,15,32,167,47,13,30,120,46,02,27,045,41,21,08,283,38,1*6B
$GPGSV,4,3,14,20,07,229,42,24,05,191,36,19,00,123,42,35,00,000,36,1*6E
$GPGSV,4,4,14,36,00,000,40,39,00,000,44,1*6A
$GLGSV,3,1,10,65,20,271,42,66,17,031,35,67,31,052,38,68,09,094,40,2*78
$GLGSV,3,2,10,69,30,356,40,70,37,187,45,72,17,218,43,74,,,39,2*49
$GLGSV,3,3,10,75,70,090,49,76,02,315,36,2*7A
$GIGSV,2,1,07,098,44,224,42,099,67,166,47,100,26,145,40,101,53,063,44,4*7E
$GIGSV,2,2,07,102,33,252,40,103,28,105,41,097,,,45,4*4B
$GNGGA,062439.00,1724.4740,N,07831.0743,E,1,24,00.5,00521.8,M,-071.3,M,,*57
$GNRMC,062439.00,A,1724.4740,N,07831.0743,E,0000.03,000.00,270819,,,A,V*0C
$GNZDA,062439.00,27,08,2019,,*75
$GNVTG,000.00,T,,M,0000.03,N,0000.05,K,A*25
$GNGLL,1724.4740,N,07831.0743,E,062439.00,A,A*77
$GNGSA,A,3,02,13,24,25,05,12,15,29,21,20,,,01.1,00.5,00.9,1*04
$GNGSA,A,3,65,66,67,68,69,70,72,75,,,,,01.1,00.5,00.9,2*0D
$GNGSA,A,3,098,099,100,101,102,103,,,,,,,01.1,00.5,00.9,4*09
$GPGSV,4,1,14,05,50,028,48,12,50,198,47,25,50,271,46,29,34,336,45,1*68
$GPGSV,4,2,14,15,32,167,46,13,30,120,45,02,27,045,38,21,08,283,38,1*67
$GPGSV,4,3,14,20,07,229,42,24,05,191,35,19,00,123,39,35,00,000,34,1*63
$GPGSV,4,4,14,36,00,000,39,39,00,000,43,1*63
$GLGSV,3,1,10,65,20,271,42,66,17,031,35,67,31,052,38,68,09,094,39,2*76
$GLGSV,3,2,10,69,30,356,41,70,37,187,45,72,17,218,42,74,,,38,2*48
$GLGSV,3,3,10,75,70,090,49,76,02,315,34,2*78
$GIGSV,2,1,07,098,44,224,42,099,67,166,47,100,26,145,40,101,53,063,44,4*7E
$GIGSV,2,2,07,102,33,252,41,103,28,105,42,097,,,45,4*49
$GNGGA,062440.00,1724.4740,N,07831.0743,E,1,24,00.5,00520.9,M,-071.3,M,,*59
$GNRMC,062440.00,A,1724.4740,N,07831.0743,E,0000.01,000.00,270819,,,A,V*00
$GNZDA,062440.00,27,08,2019,,*7B
$GNVTG,000.00,T,,M,0000.01,N,0000.03,K,A*21
$GNGLL,1724.4740,N,07831.0743,E,062440.00,A,A*79
$GNGSA,A,3,02,13,24,25,05,12,15,29,21,20,,,01.1,00.5,00.9,1*04
$GNGSA,A,3,65,66,67,68,69,70,72,75,,,,,01.1,00.5,00.9,2*0D
$GNGSA,A,3,098,099,100,101,102,103,,,,,,,01.1,00.5,00.9,4*09
$GPGSV,4,1,14,05,50,028,48,12,50,198,47,25,50,271,47,29,34,336,45,1*69
$GPGSV,4,2,14,15,32,167,47,13,30,120,46,02,27,045,41,21,08,283,38,1*6B
$GPGSV,4,3,14,20,07,229,42,24,05,191,35,19,00,123,38,35,00,000,35,1*63
$GPGSV,4,4,14,36,00,000,40,39,00,000,44,1*6A
$GLGSV,3,1,10,65,20,271,43,66,17,031,35,67,31,052,38,68,09,094,39,2*77
$GLGSV,3,2,10,69,30,356,41,70,37,187,46,72,17,218,42,74,,,38,2*4B
$GLGSV,3,3,10,75,70,090,49,76,02,315,34,2*78
$GIGSV,2,1,07,098,44,224,42,099,67,166,46,100,26,145,40,101,53,063,44,4*7F
$GIGSV,2,2,07,102,33,252,41,103,28,105,42,097,,,45,4*49
$GNGGA,062441.00,1724.4740,N,07831.0743,E,1,24,00.5,00521.0,M,-071.3,M,,*50
$GNRMC,062441.00,A,1724.4740,N,07831.0743,E,0000.00,000.00,270819,,,A,V*00
$GNZDA,062441.00,27,08,2019,,*7A
$GNVTG,000.00,T,,M,0000.00,N,0000.01,K,A*22
$GNGLL,1724.4740,N,07831.0743,E,062441.00,A,A*78
$GNGSA,A,3,02,13,24,25,05,12,15,29,21,20,,,01.1,00.5,00.9,1*04
$GNGSA,A,3,65,66,67,68,69,70,72,75,,,,,01.1,00.5,00.9,2*0D
$GNGSA,A,3,098,099,100,101,102,103,,,,,,,01.1,00.5,00.9,4*09
$GPGSV,4,1,14,05,50,028,48,12,50,198,47,25,50,271,46,29,34,336,44,1*69
$GPGSV,4,2,14,15,32,167,47,13,30,120,46,02,27,045,39,21,08,283,38,1*64
$GPGSV,4,3,14,20,07,229,42,24,05,191,35,19,00,123,36,35,00,000,36,1*6E
$GPGSV,4,4,14,36,00,000,40,39,00,000,43,1*6D
$GLGSV,3,1,10,65,20,271,43,66,17,031,34,67,31,052,38,68,09,094,39,2*76
$GLGSV,3,2,10,69,30,356,40,70,37,187,46,72,17,218,42,74,,,38,2*4A
$GLGSV,3,3,10,75,70,090,49,76,02,315,34,2*78
$GIGSV,2,1,07,098,44,224,42,099,67,166,46,100,26,145,40,101,53,063,44,4*7F
$GIGSV,2,2,07,102,33,252,41,103,28,105,41,097,,,45,4*4A
$GNGGA,062442.00,1724.4740,N,07831.0744,E,1,24,00.5,00521.0,M,-071.3,M,,*54
$GNRMC,062442.00,A,1724.4740,N,07831.0744,E,0000.02,000.00,270819,,,A,V*06
$GNZDA,062442.00,27,08,2019,,*79
$GNVTG,000.00,T,,M,0000.02,N,0000.03,K,A*22
$GNGLL,1724.4740,N,07831.0744,E,062442.00,A,A*7C
$GNGSA,A,3,02,13,24,25,05,12,15,29,21,20,,,01.1,00.5,00.9,1*04
$GNGSA,A,3,65,66,67,68,69,70,72,75,,,,,01.1,00.5,00.9,2*0D
$GNGSA,A,3,098,099,100,101,102,103,,,,,,,01.1,00.5,00.9,4*09
$GPGSV,4,1,14,05,50,028,49,12,50,198,47,25,50,271,46,29,34,336,45,1*69
$GPGSV,4,2,14,15,32,167,47,13,30,120,45,02,27,046,38,21,08,283,39,1*64
$GPGSV,4,3,14,20,07,229,42,24,05,191,36,19,00,123,31,35,00,000,36,1*6A
$GPGSV,4,4,14,36,00,000,41,39,00,000,44,1*6B
$GLGSV,3,1,10,65,20,271,43,66,17,031,35,67,31,052,38,68,09,094,39,2*77
$GLGSV,3,2,10,69,30,356,40,70,37,187,45,72,17,218,42,74,,,38,2*49
$GLGSV,3,3,10,75,70,090,49,76,02,316,34,2*7B
$GIGSV,2,1,07,098,44,224,42,099,67,166,47,100,26,145,40,101,53,063,44,4*7E
$GIGSV,2,2,07,102,33,252,41,103,28,105,41,097,,,45,4*4A
$GNGGA,062443.00,1724.4741,N,07831.0744,E,1,24,00.5,00520.9,M,-071.3,M,,*5C
$GNRMC,062443.00,A,1724.4741,N,07831.0744,E,0000.01,000.00,270819,,,A,V*05
$GNZDA,062443.00,27,08,2019,,*78
$GNVTG,000.00,T,,M,0000.01,N,0000.01,K,A*23
$GNGLL,1724.4741,N,07831.0744,E,062443.00,A,A*7C
$GNGSA,A,3,02,13,24,25,05,12,15,29,21,20,,,01.1,00.5,00.9,1*04
$GNGSA,A,3,65,66,67,68,69,70,72,75,,,,,01.1,00.5,00.9,2*0D
$GNGSA,A,3,098,099,100,101,102,103,,,,,,,01.1,00.5,00.9,4*09
$GPGSV,4,1,14,05,50,028,49,12,50,198,47,25,50,271,46,29,34,336,44,1*68
$GPGSV,4,2,14,15,32,167,47,13,30,120,45,02,27,046,41,21,08,283,38,1*6B
$GPGSV,4,3,14,20,07,229,42,24,05,191,37,19,00,123,25,35,00,000,36,1*6E
$GPGSV,4,4,14,36,00,000,41,39,00,000,43,1*6C
$GLGSV,3,1,10,65,20,271,43,66,17,031,36,67,31,052,38,68,09,094,40,2*7A
$GLGSV,3,2,10,69,30,356,41,70,37,187,45,72,17,218,42,74,,,38,2*48
$GLGSV,3,3,10,75,70,090,49,76,02,316,33,2*7C
$GIGSV,2,1,07,098,44,224,42,099,67,166,47,100,26,145,40,101,53,063,44,4*7E
$GIGSV,2,2,07,102,33,252,42,103,28,105,42,097,,,45,4*4A
$GNGGA,062444.00,1724.4741,N,07831.0744,E,1,24,00.5,00520.7,M,-071.3,M,,*55
$GNRMC,062444.00,A,1724.4741,N,07831.0744,E,0000.04,000.00,270819,,,A,V*07
$GNZDA,062444.00,27,08,2019,,*7F
$GNVTG,000.00,T,,M,0000.04,N,0000.08,K,A*2F
$GNGLL,1724.4741,N,07831.0744,E,062444.00,A,A*7B
$GNGSA,A,3,02,13,24,25,05,12,15,29,21,20,,,01.1,00.5,00.9,1*04
$GNGSA,A,3,65,66,67,68,69,70,72,75,,,,,01.1,00.5,00.9,2*0D
$GNGSA,A,3,098,099,100,101,102,103,,,,,,,01.1,00.5,00.9,4*09
$GPGSV,4,1,14,05,50,028,49,12,50,198,47,25,50,270,46,29,34,336,45,1*68
$GPGSV,4,2,14,15,32,167,47,13,30,120,45,02,27,046,38,21,08,283,38,1*65
$GPGSV,4,3,14,20,07,229,41,24,05,191,37,19,00,123,26,35,00,000,36,1*6E
$GPGSV,4,4,14,36,00,000,41,39,00,000,44,1*6B
$GLGSV,3,1,10,65,20,271,43,66,17,031,35,67,31,052,38,68,09,094,40,2*79
$GLGSV,3,2,10,69,30,356,41,70,37,187,45,72,17,218,42,74,,,38,2*48
$GLGSV,3,3,10,75,70,090,49,76,02,316,34,2*7B
$GIGSV,2,1,07,098,44,224,42,099,67,166,46,100,26,145,40,101,53,063,44,4*7F
$GIGSV,2,2,07,102,33,252,41,103,28,105,41,097,,,45,4*4A
$GNGGA,062445.00,1724.4741,N,07831.0744,E,1,24,00.5,00519.8,M,-071.3,M,,*51
$GNRMC,062445.00,A,1724.4741,N,07831.0744,E,0000.01,000.00,270819,,,A,V*03
$GNZDA,062445.00,27,08,2019,,*7E
$GNVTG,000.00,T,,M,0000.01,N,0000.02,K,A*20
$GNGLL,1724.4741,N,07831.0744,E,062445.00,A,A*7A
$GNGSA,A,3,02,13,24,25,05,12,15,29,21,20,,,01.1,00.5,00.9,1*04
$GNGSA,A,3,65,66,67,68,69,70,72,75,,,,,01.1,00.5,00.9,2*0D
$GNGSA,A,3,098,099,100,101,102,103,,,,,,,01.1,00.5,00.9,4*09
$GPGSV,4,1,14,05,50,028,48,12,50,198,47,25,50,270,46,29,34,336,45,1*69
$GPGSV,4,2,14,15,32,167,47,13,30,120,45,02,27,046,42,21,08,283,38,1*68
$GPGSV,4,3,14,20,07,229,41,24,05,191,36,19,00,123,30,35,00,000,36,1*68
$GPGSV,4,4,14,36,00,000,39,39,00,000,43,1*63
$GLGSV,3,1,10,65,20,271,43,66,17,031,35,67,31,052,38,68,09,094,39,2*77
$GLGSV,3,2,10,69,30,356,41,70,37,187,45,72,17,218,42,74,,,38,2*48
$GLGSV,3,3,10,75,70,090,49,76,02,316,34,2*7B
$GIGSV,2,1,07,098,44,224,41,099,67,166,47,100,26,145,40,101,53,063,44,4*7D
$GIGSV,2,2,07,102,33,252,42,103,28,105,41,097,,,45,4*49
$GNGGA,062446.00,1724.4741,N,07831.0744,E,1,24,00.5,00520.3,M,-071.3,M,,*53
$GNRMC,062446.00,A,1724.4741,N,07831.0744,E,0000.01,000.00,270819,,,A,V*00
$GNZDA,062446.00,27,08,2019,,*7D
$GNVTG,000.00,T,,M,0000.01,N,0000.02,K,A*20
$GNGLL,1724.4741,N,07831.0744,E,062446.00,A,A*79
$GNGSA,A,3,02,13,24,25,05,12,15,29,21,20,,,01.1,00.5,00.9,1*04
$GNGSA,A,3,65,66,67,68,69,70,72,75,,,,,01.1,00.5,00.9,2*0D
$GNGSA,A,3,098,099,100,101,102,103,,,,,,,01.1,00.5,00.9,4*09
$GPGSV,4,1,14,05,50,028,49,12,50,198,47,25,50,270,46,29,34,336,45,1*68
$GPGSV,4,2,14,15,32,167,47,13,30,120,45,02,27,046,41,21,08,283,38,1*6B
$GPGSV,4,3,14,20,07,229,41,24,05,191,36,19,00,123,31,35,00,000,36,1*69
$GPGSV,4,4,14,36,00,000,42,39,00,000,43,1*6F
$GLGSV,3,1,10,65,20,271,43,66,17,031,36,67,31,052,38,68,09,094,39,2*74
$GLGSV,3,2,10,69,30,356,40,70,37,187,45,72,17,218,42,74,,,38,2*49
$GLGSV,3,3,10,75,70,090,49,76,02,316,33,2*7C
$GIGSV,2,1,07,098,44,224,42,099,67,166,46,100,26,145,40,101,53,063,45,4*7E
$GIGSV,2,2,07,102,33,252,41,103,28,105,41,097,,,45,4*4A
$GNGGA,062447.00,1724.4742,N,07831.0745,E,1,24,00.5,00522.0,M,-071.3,M,,*51
$GNRMC,062447.00,A,1724.4742,N,07831.0745,E,0000.02,000.00,270819,,,A,V*00
$GNZDA,062447.00,27,08,2019,,*7C
$GNVTG,000.00,T,,M,0000.02,N,0000.04,K,A*25
$GNGLL,1724.4742,N,07831.0745,E,062447.00,A,A*7A
$GNGSA,A,3,02,13,24,25,05,12,15,29,21,20,,,01.1,00.5,00.9,1*04
$GNGSA,A,3,65,66,67,68,69,70,72,75,,,,,01.1,00.5,00.9,2*0D
$GNGSA,A,3,098,099,100,101,102,103,,,,,,,01.1,00.5,00.9,4*09
$GPGSV,4,1,14,05,50,028,49,12,50,198,48,25,50,270,46,29,34,336,45,1*67
$GPGSV,4,2,14,15,32,167,48,13,30,120,45,02,27,046,39,21,08,283,38,1*6B
$GPGSV,4,3,14,20,07,229,41,24,05,191,37,19,00,123,30,35,00,000,36,1*69
$GPGSV,4,4,14,36,00,000,41,39,00,000,43,1*6C
$GLGSV,3,1,10,65,20,271,43,66,17,031,35,67,31,052,38,68,09,094,39,2*77
$GLGSV,3,2,10,69,30,356,40,70,37,187,46,72,17,218,42,74,,,37,2*45
$GLGSV,3,3,10,75,70,090,48,76,02,316,31,2*7F
$GIGSV,2,1,07,098,44,224,42,099,67,166,46,100,26,145,40,101,53,063,44,4*7F
$GIGSV,2,2,07,102,33,252,41,103,28,105,42,097,,,45,4*49
$GNGGA,062448.00,1724.4741,N,07831.0745,E,1,24,00.5,00522.3,M,-071.3,M,,*5E
$GNRMC,062448.00,A,1724.4741,N,07831.0745,E,0000.01,000.00,270819,,,A,V*0F
$GNZDA,062448.00,27,08,2019,,*73
$GNVTG,000.00,T,,M,0000.01,N,0000.02,K,A*20
$GNGLL,1724.4741,N,07831.0745,E,062448.00,A,A*76
$GNGSA,A,3,02,13,24,25,05,12,15,29,21,20,,,01.1,00.5,00.9,1*04
$GNGSA,A,3,65,66,67,68,69,70,72,75,,,,,01.1,00.5,00.9,2*0D
$GNGSA,A,3,098,099,100,101,102,103,,,,,,,01.1,00.5,00.9,4*09
$GPGSV,4,1,14,05,50,028,49,12,50,198,48,25,50,270,46,29,34,336,45,1*67
$GPGSV,4,2,14,15,32,167,48,13,30,120,45,02,27,046,41,21,08,283,38,1*64
$GPGSV,4,3,14,20,07,229,42,24,05,191,36,19,00,123,29,35,00,000,35,1*60
$GPGSV,4,4,14,36,00,000,39,39,00,000,44,1*64
$GLGSV,3,1,10,65,20,271,43,66,17,031,35,67,31,052,38,68,09,094,39,2*77
$GLGSV,3,2,10,69,30,356,40,70,37,187,45,72,17,218,42,74,,,37,2*46
$GLGSV,3,3,10,75,70,090,49,76,02,316,31,2*7E
$GIGSV,2,1,07,098,44,224,42,099,67,166,47,100,26,145,40,101,53,063,44,4*7E
$GIGSV,2,2,07,102,33,252,41,103,28,105,42,097,,,45,4*49
$GNGGA,062449.00,1724.4741,N,07831.0745,E,1,24,00.5,00522.5,M,-071.3,M,,*59
$GNRMC,062449.00,A,1724.4741,N,07831.0745,E,0000.01,000.00,270819,,,A,V*0E
$GNZDA,062449.00,27,08,2019,,*72
$GNVTG,000.00,T,,M,0000.01,N,0000.02,K,A*20
$GNGLL,1724.4741,N,07831.0745,E,062449.00,A,A*77
$GNGSA,A,3,02,13,24,25,05,12,15,29,21,20,,,01.1,00.5,00.9,1*04
$GNGSA,A,3,65,66,67,68,69,70,72,75,,,,,01.1,00.5,00.9,2*0D
$GNGSA,A,3,098,099,100,101,102,103,,,,,,,01.1,00.5,00.9,4*09
$GPGSV,4,1,14,05,50,028,48,12,50,198,48,25,50,270,46,29,34,336,45,1*66
$GPGSV,4,2,14,15,32,167,47,13,30,120,45,02,27,046,38,21,08,283,39,1*64
$GPGSV,4,3,14,20,07,229,39,24,05,191,36,19,00,123,27,35,00,000,36,1*61
$GPGSV,4,4,14,36,00,000,42,39,00,000,43,1*6F
$GLGSV,3,1,10,65,20,271,43,66,17,031,34,67,31,052,38,68,09,094,38,2*77
$GLGSV,3,2,10,69,30,356,40,70,37,187,45,72,17,218,42,74,,,38,2*49
$GLGSV,3,3,10,75,70,090,49,76,02,316,32,2*7D
$GIGSV,2,1,07,098,44,224,42,099,67,166,47,100,26,145,40,101,53,063,44,4*7E
$GIGSV,2,2,07,102,33,252,41,103,28,105,42,097,,,45,4*49
$GNGGA,062450.00,1724.4742,N,07831.0746,E,1,24,00.5,00522.6,M,-071.3,M,,*52
$GNRMC,062450.00,A,1724.4742,N,07831.0746,E,0000.02,000.00,270819,,,A,V*05
$GNZDA,062450.00,27,08,2019,,*7A
$GNVTG,000.00,T,,M,0000.02,N,0000.04,K,A*25
$GNGLL,1724.4742,N,07831.0746,E,062450.00,A,A*7F
$GNGSA,A,3,02,13,24,25,05,12,15,29,21,20,,,01.1,00.5,00.9,1*04
$GNGSA,A,3,65,66,67,68,69,70,72,75,,,,,01.1,00.5,00.9,2*0D
$GNGSA,A,3,098,099,100,101,102,103,,,,,,,01.1,00.5,00.9,4*09
$GPGSV,4,1,14,05,50,028,49,12,50,198,47,25,50,270,47,29,34,336,45,1*69
$GPGSV,4,2,14,15,32,167,47,13,30,120,45,02,27,046,42,21,08,283,39,1*69
$GPGSV,4,3,14,20,07,229,41,24,05,191,37,19,00,123,27,35,00,000,34,1*6D
$GPGSV,4,4,14,36,00,000,41,39,00,000,44,1*6B
$GLGSV,3,1,10,65,20,271,43,66,17,031,35,67,31,052,38,68,09,094,38,2*76
$GLGSV,3,2,10,69,30,356,41,70,37,187,45,72,17,218,43,74,,,38,2*49
$GLGSV,3,3,10,75,70,090,49,76,02,316,34,2*7B
$GIGSV,2,1,07,098,44,224,42,099,67,166,47,100,26,145,40,101,53,063,44,4*7E
$GIGSV,2,2,07,102,33,252,41,103,28,105,41,097,,,45,4*4A
$GNGGA,062451.00,1724.4742,N,07831.0746,E,1,24,00.5,00523.3,M,-071.3,M,,*57
$GNRMC,062451.00,A,1724.4742,N,07831.0746,E,0000.02,000.00,270819,,,A,V*04
$GNZDA,062451.00,27,08,2019,,*7B
$GNVTG,000.00,T,,M,0000.02,N,0000.03,K,A*22
$GNGLL,1724.4742,N,07831.0746,E,062451.00,A,A*7E
$GNGSA,A,3,02,13,24,25,05,12,15,29,21,20,,,01.1,00.5,00.9,1*04
$GNGSA,A,3,65,66,67,68,69,70,72,75,,,,,01.1,00.5,00.9,2*0D
$GNGSA,A,3,098,099,100,101,102,103,,,,,,,01.1,00.5,00.9,4*09
$GPGSV,4,1,14,05,50,028,48,12,50,198,47,25,50,270,46,29,34,336,45,1*69
$GPGSV,4,2,14,15,32,167,47,13,31,120,45,02,27,046,42,21,08,283,38,1*69
$GPGSV,4,3,14,20,07,229,39,24,05,191,37,19,00,123,27,35,00,000,36,1*60
$GPGSV,4,4,14,36,00,000,41,39,00,000,44,1*6B
$GLGSV,3,1,10,65,20,271,43,66,17,031,36,67,31,052,37,68,09,094,38,2*7A
$GLGSV,3,2,10,69,30,356,41,70,37,187,45,72,17,218,43,74,,,39,2*48
$GLGSV,3,3,10,75,70,090,49,76,02,316,34,2*7B
$GIGSV,2,1,07,098,44,224,42,099,67,166,47,100,26,145,40,101,53,063,44,4*7E
$GIGSV,2,2,07,102,33,252,41,103,28,105,42,097,,,45,4*49
$GNGGA,062452.00,1724.4742,N,07831.0747,E,1,24,00.5,00524.1,M,-071.3,M,,*50
$GNRMC,062452.00,A,1724.4742,N,07831.0747,E,0000.02,000.00,270819,,,A,V*06
$GNZDA,062452.00,27,08,2019,,*78
$GNVTG,000.00,T,,M,0000.02,N,0000.04,K,A*25
$GNGLL,1724.4742,N,07831.0747,E,062452.00,A,A*7C
$GNGSA,A,3,02,13,24,25,05,12,15,29,21,20,,,01.1,00.5,00.9,1*04
$GNGSA,A,3,65,66,67,68,69,70,72,75,,,,,01.1,00.5,00.9,2*0D
$GNGSA,A,3,098,099,100,101,102,103,,,,,,,01.1,00.5,00.9,4*09
$GPGSV,4,1,14,05,50,028,48,12,50,198,47,25,50,270,46,29,34,336,45,1*69
$GPGSV,4,2,14,15,32,167,47,13,31,120,46,02,27,046,42,21,08,283,38,1*6A
$GPGSV,4,3,14,20,07,229,41,24,05,191,37,19,00,123,28,35,00,000,35,1*63
$GPGSV,4,4,14,36,00,000,40,39,00,000,44,1*6A
$GLGSV,3,1,10,65,20,271,43,66,17,031,36,67,31,052,37,68,09,094,38,2*7A
$GLGSV,3,2,10,69,30,356,41,70,37,187,45,72,17,218,43,74,,,38,2*49
$GLGSV,3,3,10,75,70,090,49,76,02,316,33,2*7C
$GIGSV,2,1,07,098,44,224,42,099,67,166,46,100,26,145,40,101,53,063,44,4*7F
$GIGSV,2,2,07,102,33,252,41,103,28,105,42,097,,,45,4*49
$GNGGA,062453.00,1724.4742,N,07831.0747,E,1,24,00.5,00523.8,M,-071.3,M,,*5F
$GNRMC,062453.00,A,1724.4742,N,07831.0747,E,0000.02,000.00,270819,,,A,V*07
$GNZDA,062453.00,27,08,2019,,*79
$GNVTG,000.00,T,,M,0000.02,N,0000.04,K,A*25
$GNGLL,1724.4742,N,07831.0747,E,062453.00,A,A*7D
$GNGSA,A,3,02,13,24,25,05,12,15,29,21,20,,,01.1,00.5,00.9,1*04
$GNGSA,A,3,65,66,67,68,69,70,72,75,,,,,01.1,00.5,00.9,2*0D
$GNGSA,A,3,098,099,100,101,102,103,,,,,,,01.1,00.5,00.9,4*09
$GPGSV,4,1,14,05,50,028,48,12,50,198,47,25,50,270,45,29,34,336,44,1*6B
$GPGSV,4,2,14,15,32,167,47,13,31,120,46,02,27,046,41,21,08,283,38,1*69
$GPGSV,4,3,14,20,07,229,42,24,05,191,37,19,00,123,28,35,00,000,37,1*62
$GPGSV,4,4,14,36,00,000,41,39,00,000,44,1*6B
$GLGSV,3,1,10,65,20,271,43,66,17,031,35,67,31,052,38,68,09,094,39,2*77
$GLGSV,3,2,10,69,30,356,41,70,37,187,45,72,17,218,43,74,,,37,2*46
$GLGSV,3,3,10,75,70,090,49,76,02,316,32,2*7D
$GIGSV,2,1,07,098,44,224,42,099,67,166,47,100,26,145,40,101,53,063,44,4*7E
$GIGSV,2,2,07,102,33,252,41,103,28,105,42,097,,,45,4*49
$GNGGA,062454.00,1724.4741,N,07831.0747,E,1,24,00.5,00522.1,M,-071.3,M,,*53
$GNRMC,062454.00,A,1724.4741,N,07831.0747,E,0000.07,000.00,270819,,,A,V*06
$GNZDA,062454.00,27,08,2019,,*7E
$GNVTG,000.00,T,,M,0000.07,N,0000.12,K,A*27
$GNGLL,1724.4741,N,07831.0747,E,062454.00,A,A*79
$GNGSA,A,3,02,13,24,25,05,12,15,29,21,20,,,01.1,00.5,00.9,1*04
$GNGSA,A,3,65,66,67,68,69,70,72,75,,,,,01.1,00.5,00.9,2*0D
$GNGSA,A,3,098,099,100,101,102,103,,,,,,,01.1,00.5,00.9,4*09
$GPGSV,4,1,14,05,50,028,48,12,50,198,47,25,50,270,46,29,34,336,45,1*69
$GPGSV,4,2,14,15,32,167,48,13,31,120,45,02,27,046,42,21,08,283,38,1*66
$GPGSV,4,3,14,20,07,229,41,24,05,191,36,19,00,123,29,35,00,000,36,1*60
$GPGSV,4,4,14,36,00,000,39,39,00,000,44,1*64
$GLGSV,3,1,10,65,20,271,43,66,17,031,35,67,31,052,38,68,09,094,39,2*77
$GLGSV,3,2,10,69,30,356,41,70,37,187,45,72,17,218,43,74,,,37,2*46
$GLGSV,3,3,10,75,70,090,49,76,02,316,30,2*7F
$GIGSV,2,1,07,098,44,224,42,099,67,166,47,100,26,145,40,101,53,063,44,4*7E
$GIGSV,2,2,07,102,33,252,41,103,28,105,41,097,,,45,4*4A
$GNGGA,062455.00,1724.4741,N,07831.0747,E,1,24,00.5,00522.0,M,-071.3,M,,*53
$GNRMC,062455.00,A,1724.4741,N,07831.0747,E,0000.07,000.00,270819,,,A,V*07
$GNZDA,062455.00,27,08,2019,,*7F
$GNVTG,000.00,T,,M,0000.07,N,0000.12,K,A*27
$GNGLL,1724.4741,N,07831.0747,E,062455.00,A,A*78
$GNGSA,A,3,02,13,24,25,05,12,15,29,21,20,,,01.1,00.5,00.9,1*04
$GNGSA,A,3,65,66,67,68,69,70,72,75,,,,,01.1,00.5,00.9,2*0D
$GNGSA,A,3,098,099,100,101,102,103,,,,,,,01.1,00.5,00.9,4*09
$GPGSV,4,1,14,05,50,028,48,12,50,198,47,25,50,270,46,29,34,336,44,1*68
$GPGSV,4,2,14,15,32,167,48,13,31,120,45,02,27,046,42,21,08,283,39,1*67
$GPGSV,4,3,14,20,07,229,42,24,05,191,35,19,00,124,32,35,00,000,35,1*6E
$GPGSV,4,4,14,36,00,000,40,39,00,000,44,1*6A
$GLGSV,3,1,10,65,20,271,43,66,17,031,34,67,31,052,38,68,09,094,39,2*76
$GLGSV,3,2,10,69,30,356,41,70,37,187,45,72,17,218,43,74,,,38,2*49
$GLGSV,3,3,10,75,70,090,49,76,02,316,28,2*76
$GIGSV,2,1,07,098,44,224,42,099,67,166,47,100,26,145,40,101,53,063,44,4*7E
$GIGSV,2,2,07,102,33,252,41,103,28,105,42,097,,,45,4*49
$GNGGA,062456.00,1724.4740,N,07831.0747,E,1,24,00.5,00522.2,M,-071.3,M,,*53
$GNRMC,062456.00,A,1724.4740,N,07831.0747,E,0000.08,000.00,270819,,,A,V*0A
$GNZDA,062456.00,27,08,2019,,*7C
$GNVTG,000.00,T,,M,0000.08,N,0000.15,K,A*2F
$GNGLL,1724.4740,N,07831.0747,E,062456.00,A,A*7A
$GNGSA,A,3,02,13,24,25,05,12,15,29,21,20,,,01.1,00.5,00.9,1*04
$GNGSA,A,3,65,66,67,68,69,70,72,75,,,,,01.1,00.5,00.9,2*0D
$GNGSA,A,3,098,099,100,101,102,103,,,,,,,01.1,00.5,00.9,4*09
$GPGSV,4,1,14,05,50,028,49,12,50,198,47,25,50,270,46,29,34,336,44,1*69
$GPGSV,4,2,14,15,32,167,48,13,31,120,45,02,27,046,42,21,08,283,38,1*66
$GPGSV,4,3,14,20,07,229,42,24,05,191,36,19,00,124,33,35,00,000,35,1*6C
$GPGSV,4,4,14,36,00,000,40,39,00,000,44,1*6A
$GLGSV,3,1,10,65,20,271,43,66,17,031,35,67,31,052,38,68,09,094,40,2*79
$GLGSV,3,2,10,69,30,356,41,70,37,187,46,72,17,218,42,74,,,38,2*4B
$GLGSV,3,3,10,75,70,090,49,76,02,316,29,2*77
$GIGSV,2,1,07,098,44,224,42,099,67,166,47,100,26,145,40,101,53,063,44,4*7E
$GIGSV,2,2,07,102,33,252,41,103,28,105,42,097,,,45,4*49
$GNGGA,062457.00,1724.4740,N,07831.0746,E,1,24,00.5,00522.5,M,-071.3,M,,*54
$GNRMC,062457.00,A,1724.4740,N,07831.0746,E,0000.07,000.00,270819,,,A,V*05
$GNZDA,062457.00,27,08,2019,,*7D
$GNVTG,000.00,T,,M,0000.07,N,0000.13,K,A*26
$GNGLL,1724.4740,N,07831.0746,E,062457.00,A,A*7A
$GNGSA,A,3,02,13,24,25,05,12,15,29,21,20,,,01.1,00.5,00.9,1*04
$GNGSA,A,3,65,66,67,68,69,70,72,75,,,,,01.1,00.5,00.9,2*0D
$GNGSA,A,3,098,099,100,101,102,103,,,,,,,01.1,00.5,00.9,4*09
$GPGSV,4,1,14,05,50,028,49,12,50,198,47,25,50,270,46,29,34,336,44,1*69
$GPGSV,4,2,14,15,32,167,47,13,31,120,45,02,27,046,42,21,08,283,38,1*69
$GPGSV,4,3,14,20,07,229,41,24,05,191,36,19,00,124,34,35,00,000,36,1*6B
$GPGSV,4,4,14,36,00,000,41,39,00,000,43,1*6C
$GLGSV,3,1,10,65,20,271,43,66,17,031,34,67,31,052,37,68,09,094,40,2*77
$GLGSV,3,2,10,69,30,356,41,70,37,187,46,72,17,218,42,74,,,38,2*4B
$GLGSV,3,3,10,75,70,090,49,76,02,316,30,2*7F
$GIGSV,2,1,07,098,44,224,42,099,67,166,47,100,26,145,40,101,53,063,44,4*7E
$GIGSV,2,2,07,102,33,252,41,103,28,105,42,097,,,45,4*49
$GNGGA,062458.00,1724.4740,N,07831.0747,E,1,24,00.5,00524.2,M,-071.3,M,,*5B
$GNRMC,062458.00,A,1724.4740,N,07831.0747,E,0000.02,000.00,270819,,,A,V*0E
$GNZDA,062458.00,27,08,2019,,*72
$GNVTG,000.00,T,,M,0000.02,N,0000.04,K,A*25
$GNGLL,1724.4740,N,07831.0747,E,062458.00,A,A*74
$GNGSA,A,3,02,13,24,25,05,12,15,29,21,20,,,01.1,00.5,00.9,1*04
$GNGSA,A,3,65,66,67,68,69,70,72,75,,,,,01.1,00.5,00.9,2*0D
$GNGSA,A,3,098,099,100,101,102,103,,,,,,,01.1,00.5,00.9,4*09
$GPGSV,4,1,14,05,50,028,48,12,50,198,47,25,50,270,46,29,34,336,45,1*69
$GPGSV,4,2,14,15,32,167,47,13,31,120,46,02,27,046,42,21,08,283,38,1*6A
$GPGSV,4,3,14,20,07,229,42,24,05,191,36,19,00,124,35,35,00,000,36,1*69
$GPGSV,4,4,14,36,00,000,40,39,00,000,43,1*6D
$GLGSV,3,1,10,65,20,271,43,66,17,031,35,67,31,052,37,68,09,094,40,2*76
$GLGSV,3,2,10,69,30,356,41,70,37,187,46,72,17,218,42,74,,,38,2*4B
$GLGSV,3,3,10,75,70,090,49,76,02,316,29,2*77
$GIGSV,2,1,07,098,44,224,41,099,67,166,46,100,26,145,40,101,53,063,44,4*7C
$GIGSV,2,2,07,102,33,252,41,103,28,105,42,097,,,45,4*49
$GNGGA,062459.00,1724.4741,N,07831.0746,E,1,24,00.5,00524.7,M,-071.3,M,,*5F
$GNRMC,062459.00,A,1724.4741,N,07831.0746,E,0000.02,000.00,270819,,,A,V*0F
$GNZDA,062459.00,27,08,2019,,*73
$GNVTG,000.00,T,,M,0000.02,N,0000.05,K,A*24
$GNGLL,1724.4741,N,07831.0746,E,062459.00,A,A*75
$GNGSA,A,3,02,13,24,25,05,12,15,29,21,20,,,01.1,00.5,00.9,1*04
$GNGSA,A,3,65,66,67,68,69,70,72,75,,,,,01.1,00.5,00.9,2*0D
$GNGSA,A,3,098,099,100,101,102,103,,,,,,,01.1,00.5,00.9,4*09
$GPGSV,4,1,14,05,50,028,49,12,50,198,47,25,50,270,46,29,34,336,45,1*68
$GPGSV,4,2,14,15,32,167,47,13,31,120,46,02,27,046,42,21,08,283,38,1*6A
